~VERSION INFORMATION
 VERS.                 2.0:   CWLS LOG ASCII STANDARD - VERSION 2.0
 WRAP.                  NO:   SINGLE LINE PER DEPTH STEP
 CREA.                 22/09/2026 10:10:00
#CREATED USING PANDAS VERSION 3.0.5 BY GIECAR/UFF ON 02/06/2020 16:50:42
~WELL INFORMATION
#MNEM.UNIT       DATA                          DESCRIPTION MNEMONIC
#---------      ---------------------------   --------------------------
 STRT    .M         1868.0001                 : START DEPTH
 STOP    .M         3172.9001                 : STOP DEPTH
 STEP    .M         0.1000                    : STEP VALUE
 NULL    .      -999.0000                     : NULL VALUE
 DATE    .      22/09/2026                    : LAS file Creation Date
 WELL   .      7-MP-56D-BA      : Well Name
 COMP   .      PETROBRAS        : Company
 FLD    .      MASSAPE          : Field
 STATE  .      BAHIA            : State
 API    .      20240028489      : API Number
 UWI    .                       : Unique Well Identifier (UWI)
 LOC    .                       : Location
 TOWN   .      -999.25          : Township
 SCT    .      -999.25          : Section
 RANG   .      -999.25          : Range
 PDAT   .      NM               : Permanent Datum
 EPDAT  .      0.0              : Elevation of Permanent Datum
 LGMEA  .      MR               : Log Measured from
 DRMEA  .      MR               : Drill Measured From
 APDAT  .      100.38           : Elevation Above Permanent Datum
 KB     .      100.68           : KB Elevation
 DF     .      100.38           : DF Elevation
 GL     .      90.98            : GL Elevation
 RWS    .      -999             : Def_Rw
 WST    .      -999             : Def_Rwt
 PROV   .                       : Province
 SRVC   .                       : Contractor
 GDAT   .      WGS 84           : Geodatum
 LONG   .      -38.4243922222985: Longitude
 LATI   .      0                : Latitude
 COORDIN.                       : Grid System
 XCOORD .                       : X or East-West Coordinate
 YCOORD .                       : Y or North-South Coordinate
~CURVE INFORMATION
#MNEM              UNIT       API CODE   Curve Type Comments
#----------  --------------- ----------  ---------- -----------
 DEPTH      .M                         : Depth       Loaded from DLIS: 7-mp-56d-ba_raw-1-6949.dlis
 BS         .in                        : BitSize     Loaded from DLIS: 7-mp-56d-ba_raw-1-6949.dlis
 GR         .gapi                      : GammaRay    Loaded from DLIS: 7-mp-56d-ba_raw-1-6949.dlis
 CALI       .in                        : Caliper     Loaded from DLIS: 7-mp-56d-ba_raw-1-6949.dlis   
 DT         .uspf                      : Sonic       Loaded from DLIS: 7-mp-56d-ba_raw-1-6949.dlis
 RT30       .ohmm                      : DeepRes     Loaded from DLIS: 7-mp-56d-ba_raw-1-6949.dlis
 RT60       .ohmm                      : DeepRes     Loaded from DLIS: 7-mp-56d-ba_raw-1-6949.dlis
 RT90       .ohmm                      : DeepRes     Loaded from DLIS: 7-mp-56d-ba_raw-1-6949.dlis
 RHOB       .g/cc                      : Density     Loaded from DLIS: 7-mp-56d-ba_raw-1-6949.dlis
 DRHO       .g/cc                      : Density     Loaded from DLIS: 7-mp-56d-ba_raw-1-6949.dlis
 NPHI       .decp                      : Neutron     Loaded from DLIS: 7-mp-56d-ba_raw-1-6949.dlis         
~A  DEPTH        BS        GR         CALI       DT         RT30       RT60       RT90       RHOB       DRHO       NPHI
# ...
 2993.6001     8.5000    56.4268     8.2992    72.3968    34.9995    35.2093    34.9903     2.4014     0.0224     0.1210
 2993.7001     8.5000    54.7601     8.2912    72.1902    35.2137    35.4046    35.2012     2.4076     0.0251     0.1190
 2993.8001     8.5000    53.7342     8.3035    71.8120    34.1653    34.3149    34.1562     2.4151     0.0221     0.1179
 2993.9001     8.5000    56.4032     8.3118    71.4194    32.9498    33.0805    32.9478     2.4210     0.0189     0.1211
 2994.0001     8.5000    60.0471     8.3289    71.7127    31.4771    31.5921    31.4848     2.4252     0.0144     0.1192
 2994.1001     8.5000    66.0573     8.3323    72.1681    28.7820    28.8775    28.8136     2.4250     0.0082     0.1156
 2994.2001     8.5000    66.3088     8.3200    72.8482    27.9165    28.0085    27.9617     2.4168     0.0062     0.1171
 2994.3001     8.5000    65.9315     8.3199    73.1994    27.4223    27.5143    27.4824     2.4114     0.0063     0.1207
 2994.4001     8.5000    64.1312     8.2970    73.2671    27.3196    27.4201    27.4145     2.4147     0.0083     0.1209
 2994.5001     8.5000    63.7971     8.2939    73.2775    27.6283    27.7368    27.7443     2.4225     0.0078     0.1200
 2994.6001     8.5000    65.1650     8.3107    73.1577    28.1787    28.2971    28.3182     2.4277     0.0067     0.1230
 2994.7001     8.5000    65.8843     8.3439    72.9821    30.1606    30.3047    30.3556     2.4272     0.0041     0.1317
 2994.8001     8.5000    63.9669     8.3439    72.6257    31.6872    31.8470    31.9153     2.4204     0.0037     0.1356
 2994.9001     8.5000    60.2452     8.3037    71.8614    33.5711    33.7479    33.8355     2.4126     0.0028     0.1286
 2995.0001     8.5000    56.4409     8.2946    71.2576    35.6672    35.8605    35.9692     2.4027     0.0006     0.1274
 2995.1001     8.5000    53.1202     8.2827    70.7671    39.1249    39.3421    39.4914     2.3904    -0.0044     0.1204
 2995.2001     8.5000    52.7696     8.2857    70.3153    39.7132    39.9331    40.0966     2.3900    -0.0066     0.1135
 2995.3001     8.5000    53.5785     8.2834    70.6098    39.3230    39.5391    39.7098     2.3960    -0.0075     0.1099
 2995.4001     8.5000    55.4912     8.2855    71.2572    36.5713    36.7673    36.9327     2.3998    -0.0078     0.1068
 2995.5001     8.5000    57.6768     8.2842    72.2301    34.9647    35.1495    35.3060     2.3977    -0.0070     0.1111
 2995.6001     8.5000    58.9622     8.2898    73.0818    33.5868    33.7621    33.9081     2.3929    -0.0051     0.1138
 2995.7001     8.5000    58.2271     8.3035    73.5034    32.0328    32.1967    32.3213     2.3947     0.0001     0.1251
 2995.8001     8.5000    56.5211     8.3035    73.7062    31.9789    32.1413    32.2555     2.4008     0.0032     0.1297
 2995.9001     8.5000    56.3717     8.3008    73.3960    32.4401    32.6034    32.7067     2.4031     0.0048     0.1282
 2996.0001     8.5000    58.1799     8.2847    72.8671    34.7406    34.9098    34.9863     2.4043     0.0071     0.1252
 2996.1001     8.5000    59.2059     8.2674    72.3155    36.2102    36.3814    36.4390     2.3991     0.0067     0.1259
 2996.2001     8.5000    58.2821     8.2595    71.7364    37.4084    37.5784    37.6124     2.3973     0.0061     0.1212
 2996.3001     8.5000    57.0125     8.2600    71.3339    37.5358    37.6895    37.6671     2.3918     0.0019     0.1175
 2996.4001     8.5000    58.2664     8.2706    71.3570    36.2660    36.4058    36.3558     2.3934    -0.0004     0.1133
 2996.5001     8.5000    61.5211     8.2768    72.0256    34.4338    34.5580    34.4841     2.3957    -0.0026     0.1097
 2996.6001     8.5000    65.1021     8.2851    73.0405    32.4913    32.6007    32.5065     2.3964    -0.0046     0.1123
 2996.7001     8.5000    71.6036     8.3030    73.9409    29.8889    29.9760    29.8471     2.3956    -0.0103     0.1251
 2996.8001     8.5000    73.4315     8.3102    74.4413    29.6662    29.7464    29.5980     2.3929    -0.0128     0.1289
 2996.9001     8.5000    74.0447     8.3278    74.3409    30.1910    30.2663    30.0947     2.3934    -0.0140     0.1341
 2997.0001     8.5000    70.5856     8.2768    73.6377    32.9328    33.0013    32.7695     2.3963    -0.0085     0.1265
 2997.1001     8.5000    66.9103     8.2604    72.9075    34.6290    34.6937    34.4276     2.3928    -0.0049     0.1189
 2997.2001     8.5000    63.2782     8.2483    72.5970    36.1329    36.1928    35.8938     2.3852    -0.0018     0.1200
 2997.3001     8.5000    60.0392     8.2222    72.5162    37.9818    38.0306    37.6809     2.3665     0.0003     0.1343
 2997.4001     8.5000    60.0706     8.2349    72.6138    38.3806    38.4235    38.0591     2.3665     0.0018     0.1427
 2997.5001     8.5000    60.4952     8.2496    73.0729    38.6058    38.6429    38.2704     2.3722     0.0033     0.1499
 2997.6001     8.5000    61.6587     8.2757    73.6846    39.0027    39.0277    38.6564     2.3877     0.0063     0.1476
 2997.7001     8.5000    62.2129     8.2752    74.0968    39.2547    39.2732    38.9106     2.3881     0.0066     0.1442
 2997.8001     8.5000    61.6351     8.2718    73.8703    39.5015    39.5133    39.1652     2.3852     0.0067     0.1391
 2997.9001     8.5000    60.6799     8.2715    74.1152    39.8121    39.8115    39.5105     2.3793     0.0089     0.1364
 2998.0001     8.5000    61.6351     8.2838    74.4092    39.9498    39.9442    39.6747     2.3772     0.0108     0.1371
 2998.1001     8.5000    62.8930     8.2758    74.6871    40.2061    40.1970    39.9633     2.3732     0.0121     0.1324
 2998.2001     8.5000    63.4118     8.2345    74.6149    40.6976    40.6868    40.4928     2.3692     0.0135     0.1302
 2998.3001     8.5000    60.2908     8.2505    74.4503    42.7320    42.7259    42.6255     2.3683     0.0131     0.1322
 2998.4001     8.5000    59.0801     8.2531    74.0380    44.2967    44.2991    44.2548     2.3729     0.0146     0.1355
 2998.5001     8.5000    58.9464     8.2551    73.2952    46.1195    46.1362    46.1499     2.3784     0.0147     0.1360
 2998.6001     8.5000    59.4889     8.2589    72.6434    49.7946    49.8635    49.9988     2.3890     0.0179     0.1264
 2998.7001     8.5000    58.5023     8.2582    72.4015    51.2216    51.3307    51.5266     2.3944     0.0168     0.1223
 2998.8001     8.5000    57.8576     8.2683    72.1643    52.1984    52.3568    52.6077     2.3995     0.0174     0.1185
 2998.9001     8.5000    58.2232     8.2500    71.8913    52.8386    53.1162    53.4467     2.4038     0.0180     0.1168
 2999.0001     8.5000    60.2955     8.2285    71.7564    52.7609    53.1041    53.4558     2.4055     0.0205     0.1128
 2999.1001     8.5000    61.3985     8.2354    71.9621    52.5910    53.0005    53.3605     2.4055     0.0211     0.1109
 2999.2001     8.5000    61.5644     8.2523    72.0453    52.0264    52.5606    52.8985     2.4036     0.0200     0.1122
 2999.3001     8.5000    59.4881     8.2523    71.7280    51.4622    52.0482    52.3560     2.3991     0.0183     0.1098
 2999.4001     8.5000    58.4087     8.2593    71.0073    50.4968    51.1223    51.3798     2.3960     0.0171     0.1105
 2999.5001     8.5000    55.6760     8.2649    70.3776    46.9667    47.6113    47.7598     2.3964     0.0161     0.1059
 2999.6001     8.5000    55.6681     8.2694    70.3616    44.4469    45.0740    45.1763     2.3975     0.0141     0.1027
 2999.7001     8.5000    55.8568     8.2704    70.4995    41.5801    42.1825    42.2424     2.3988     0.0124     0.1054
 2999.8001     8.5000    57.8851     8.2671    70.5368    38.5319    39.1059    39.1295     2.3981     0.0083     0.1072
 2999.9001     8.5000    62.2129     8.2826    71.0584    32.2942    32.8079    32.7826     2.4042     0.0067     0.1156
 3000.0001     8.5000    64.9488     8.2833    72.0524    29.2671    29.7488    29.7107     2.4129     0.0069     0.1194
 3000.1001     8.5000    67.0911     8.2787    72.8750    26.4815    26.9316    26.8868     2.4284     0.0096     0.1214
 3000.2001     8.5000    75.3811     8.2835    73.4245    22.4052    22.8103    22.7624     2.4673     0.0049     0.1262
