~VERSION INFORMATION
 VERS.                 2.0:   CWLS LOG ASCII STANDARD - VERSION 2.0
 WRAP.                  NO:   SINGLE LINE PER DEPTH STEP
 CREA.                 22/09/2026 10:10:00
#CREATED USING PANDAS VERSION 3.0.5 BY GIECAR/UFF ON 02/06/2020 16:50:42
~WELL INFORMATION
#MNEM.UNIT       DATA                          DESCRIPTION MNEMONIC
#---------      ---------------------------   --------------------------
 STRT    .M         1868.0001                 : START DEPTH
 STOP    .M         3172.9001                 : STOP DEPTH
 STEP    .M         0.1000                    : STEP VALUE
 NULL    .      -999.0000                     : NULL VALUE
 DATE    .      22/09/2026                    : LAS file Creation Date
 WELL   .      7-MP-56D-BA      : Well Name
 COMP   .      PETROBRAS        : Company
 FLD    .      MASSAPE          : Field
 STATE  .      BAHIA            : State
 API    .      20240028489      : API Number
 UWI    .                       : Unique Well Identifier (UWI)
 LOC    .                       : Location
 TOWN   .      -999.25          : Township
 SCT    .      -999.25          : Section
 RANG   .      -999.25          : Range
 PDAT   .      NM               : Permanent Datum
 EPDAT  .      0.0              : Elevation of Permanent Datum
 LGMEA  .      MR               : Log Measured from
 DRMEA  .      MR               : Drill Measured From
 APDAT  .      100.38           : Elevation Above Permanent Datum
 KB     .      100.68           : KB Elevation
 DF     .      100.38           : DF Elevation
 GL     .      90.98            : GL Elevation
 RWS    .      -999             : Def_Rw
 WST    .      -999             : Def_Rwt
 PROV   .                       : Province
 SRVC   .                       : Contractor
 GDAT   .      WGS 84           : Geodatum
 LONG   .      -38.4243922222985: Longitude
 LATI   .      0                : Latitude
 COORDIN.                       : Grid System
 XCOORD .                       : X or East-West Coordinate
 YCOORD .                       : Y or North-South Coordinate
~CURVE INFORMATION
#MNEM              UNIT       API CODE   Curve Type Comments
#----------  --------------- ----------  ---------- -----------
 DEPTH      .M                         : Depth       Loaded from DLIS: 7-mp-56d-ba_raw-1-6949.dlis
 BS         .in                        : BitSize     Loaded from DLIS: 7-mp-56d-ba_raw-1-6949.dlis
 GR         .gapi                      : GammaRay    Loaded from DLIS: 7-mp-56d-ba_raw-1-6949.dlis
 CALI       .in                        : Caliper     Loaded from DLIS: 7-mp-56d-ba_raw-1-6949.dlis   
 DT         .uspf                      : Sonic       Loaded from DLIS: 7-mp-56d-ba_raw-1-6949.dlis
 RT30       .ohmm                      : DeepRes     Loaded from DLIS: 7-mp-56d-ba_raw-1-6949.dlis
 RT60       .ohmm                      : DeepRes     Loaded from DLIS: 7-mp-56d-ba_raw-1-6949.dlis
 RT90       .ohmm                      : DeepRes     Loaded from DLIS: 7-mp-56d-ba_raw-1-6949.dlis
 RHOB       .g/cc                      : Density     Loaded from DLIS: 7-mp-56d-ba_raw-1-6949.dlis
 DRHO       .g/cc                      : Density     Loaded from DLIS: 7-mp-56d-ba_raw-1-6949.dlis
 NPHI       .decp                      : Neutron     Loaded from DLIS: 7-mp-56d-ba_raw-1-6949.dlis         
~A  DEPTH        BS        GR         CALI       DT         RT30       RT60       RT90       RHOB       DRHO       NPHI
# ...
 3080.7001     8.5000    54.0840     8.1928    72.3892    40.1327    39.8776    38.0041     2.3826     0.0280     0.1057
 3080.8001     8.5000    53.8953     8.2273    72.8860    39.5398    39.2677    37.4478     2.3811     0.0263     0.1056
 3080.9001     8.5000    53.1210     8.2330    73.3400    38.4307    38.1237    36.4065     2.3801     0.0211     0.1060
 3081.0001     8.5000    52.8144     8.1931    73.7375    37.9518    37.6269    35.9560     2.3825     0.0190     0.1087
 3081.1001     8.5000    52.8576     8.1754    73.9355    37.5394    37.1965    35.5672     2.3823     0.0177     0.1126
 3081.2001     8.5000    50.7586     8.1759    73.8842    37.0148    36.6346    35.0693     2.3790     0.0163     0.1157
 3081.3001     8.5000    49.4732     8.1860    73.3101    36.9895    36.5889    35.0422     2.3775     0.0148     0.1159
 3081.4001     8.5000    49.4968     8.1981    72.0990    37.1685    36.7456    35.2068     2.3767     0.0133     0.1146
 3081.5001     8.5000    51.4032     8.2058    71.0272    38.0761    37.6028    36.0520     2.3784     0.0119     0.1119
 3081.6001     8.5000    51.2814     8.2077    70.3294    38.7268    38.2267    36.6601     2.3795     0.0124     0.1126
 3081.7001     8.5000    49.8545     8.1954    70.1391    39.4501    38.9233    37.3382     2.3806     0.0127     0.1135
 3081.8001     8.5000    48.1996     8.1923    70.3835    40.7622    40.1905    38.5788     2.3838     0.0140     0.1043
 3081.9001     8.5000    49.2373     8.1854    70.9924    40.9998    40.4172    38.8134     2.3858     0.0146     0.1048
 3082.0001     8.5000    50.4952     8.1885    72.0036    40.7190    40.1380    38.5657     2.3888     0.0158     0.1083
 3082.1001     8.5000    51.0141     8.1981    72.8058    39.9542    39.3865    37.8671     2.3892     0.0166     0.1163
 3082.2001     8.5000    49.9292     8.2246    73.3418    37.9677    37.4409    36.0473     2.3898     0.0176     0.1311
 3082.3001     8.5000    48.7185     8.2262    73.5224    37.1577    36.6495    35.3109     2.3860     0.0177     0.1292
 3082.4001     8.5000    47.2326     8.2256    73.4862    36.5645    36.0711    34.7781     2.3822     0.0177     0.1249
 3082.5001     8.5000    48.4480     8.2247    73.4517    35.9096    35.4342    34.2078     2.3712     0.0163     0.1199
 3082.6001     8.5000    49.5990     8.2280    73.4360    35.7370    35.2661    34.0651     2.3673     0.0154     0.1210
 3082.7001     8.5000    50.6359     8.2314    73.4982    35.6077    35.1389    33.9606     2.3656     0.0144     0.1170
 3082.8001     8.5000    51.3199     8.2308    73.5969    35.3812    34.9109    33.7747     2.3664     0.0140     0.1115
 3082.9001     8.5000    51.9535     8.2323    73.6167    35.2883    34.8142    33.6983     2.3669     0.0141     0.1123
 3083.0001     8.5000    53.3733     8.2353    73.5479    35.2301    34.7502    33.6536     2.3656     0.0144     0.1135
 3083.1001     8.5000    53.5966     8.2404    73.5309    35.1907    34.6937    33.6355     2.3667     0.0146     0.1139
 3083.2001     8.5000    52.8773     8.2470    73.5095    35.1613    34.6542    33.6170     2.3706     0.0147     0.1115
 3083.3001     8.5000    52.0597     8.2493    73.2424    35.0832    34.5662    33.5524     2.3771     0.0151     0.1109
 3083.4001     8.5000    51.9378     8.2528    72.9175    34.7755    34.2405    33.2803     2.3830     0.0162     0.1141
 3083.5001     8.5000    50.1493     8.2475    72.7268    34.5903    34.0471    33.1154     2.3831     0.0161     0.1153
 3083.6001     8.5000    47.9441     8.2453    72.4129    34.4252    33.8742    32.9706     2.3813     0.0154     0.1155
 3083.7001     8.5000    45.7782     8.2337    71.9699    34.3032    33.7446    32.8678     2.3806     0.0143     0.1126
 3083.8001     8.5000    45.6839     8.2404    71.7694    34.2149    33.6420    32.8142     2.3814     0.0140     0.1133
 3083.9001     8.5000    45.9433     8.2366    71.9315    34.2147    33.6364    32.8315     2.3799     0.0144     0.1109
 3084.0001     8.5000    45.4834     8.2329    72.2465    34.1863    33.6056    32.8239     2.3754     0.0150     0.1111
 3084.1001     8.5000    44.0722     8.2207    72.5365    33.8728    33.3003    32.5696     2.3718     0.0148     0.1148
 3084.2001     8.5000    45.4378     8.2050    72.8421    33.5547    32.9937    32.2912     2.3732     0.0153     0.1123
 3084.3001     8.5000    48.2696     8.2199    73.1178    33.1382    32.5933    31.9200     2.3774     0.0160     0.1107
 3084.4001     8.5000    51.7020     8.2085    73.3994    32.2165    31.7123    31.0960     2.3757     0.0185     0.1088
 3084.5001     8.5000    52.1328     8.2165    73.5527    31.7781    31.2964    30.7062     2.3743     0.0199     0.1074
 3084.6001     8.5000    51.3560     8.2212    73.7688    31.3058    30.8485    30.2837     2.3727     0.0221     0.1075
 3084.7001     8.5000    52.1540     8.2425    74.4236    30.0977    29.6950    29.1817     2.3810     0.0267     0.1043
 3084.8001     8.5000    51.9339     8.2501    74.8527    29.4057    29.0313    28.5431     2.3853     0.0288     0.1056
 3084.9001     8.5000    51.8828     8.2771    74.2120    28.7036    28.3567    27.8921     2.3915     0.0305     0.1124
 3085.0001     8.5000    53.2664     8.2570    73.1432    27.3129    27.0157    26.5930     2.3990     0.0350     0.1178
 3085.1001     8.5000    54.7405     8.1846    72.1152    26.6881    26.4115    26.0060     2.3991     0.0364     0.1164
 3085.2001     8.5000    55.2004     8.1996    71.6381    26.2065    25.9463    25.5537     2.3936     0.0373     0.1189
 3085.3001     8.5000    54.3592     8.2029    71.9308    25.9563    25.7072    25.3223     2.3886     0.0381     0.1171
 3085.4001     8.5000    54.5832     8.1806    72.2898    26.3472    26.1029    25.7143     2.3781     0.0433     0.1187
 3085.5001     8.5000    56.3796     8.1690    72.7476    26.9063    26.6566    26.2584     2.3809     0.0474     0.1211
 3085.6001     8.5000    57.8144     8.1563    73.1964    27.5244    27.2661    26.8565     2.3802     0.0497     0.1194
 3085.7001     8.5000    55.7979     8.1502    73.6452    28.3707    28.0924    27.6654     2.3778     0.0496     0.1247
 3085.8001     8.5000    53.0188     8.1554    74.1953    28.4679    28.1805    27.7505     2.3746     0.0477     0.1300
 3085.9001     8.5000    51.2735     8.1981    74.7676    28.3398    28.0446    27.6159     2.3758     0.0465     0.1344
 3086.0001     8.5000    50.2004     8.1556    75.2012    27.5283    27.2220    26.8066     2.3793     0.0462     0.1292
 3086.1001     8.5000    50.8136     8.1497    75.0765    26.9747    26.6639    26.2579     2.3768     0.0467     0.1253
 3086.2001     8.5000    51.3442     8.1393    74.5960    26.4620    26.1460    25.7480     2.3730     0.0482     0.1231
 3086.3001     8.5000    52.4645     8.0782    74.1348    26.0770    25.7391    25.3440     2.3681     0.0500     0.1253
 3086.4001     8.5000    52.0990     8.0798    73.8474    26.3875    26.0294    25.6255     2.3714     0.0504     0.1271
 3086.5001     8.5000    51.7019     8.0797    73.6430    27.0426    26.6572    26.2372     2.3751     0.0500     0.1254
 3086.6001     8.5000    51.4975     8.0791    73.6256    28.9596    28.5032    28.0361     2.3887     0.0504     0.1206
 3086.7001     8.5000    51.8159     8.0805    73.7836    29.8536    29.3605    28.8687     2.3948     0.0514     0.1192
 3086.8001     8.5000    50.9826     8.0802    73.8714    30.4676    29.9427    29.4304     2.4016     0.0521     0.1175
 3086.9001     8.5000    49.9409     8.0845    73.9572    30.7360    30.1870    29.6602     2.4045     0.0526     0.1158
 3087.0001     8.5000    48.1485     8.0807    73.8756    30.5071    29.9320    29.3910     2.3985     0.0498     0.1154
 3087.1001     8.5000    47.9873     8.0813    73.6002    30.2699    29.6879    29.1426     2.3919     0.0482     0.1199
 3087.2001     8.5000    48.6359     8.0834    73.3116    30.0920    29.5039    28.9533     2.3868     0.0463     0.1226
 3087.3001     8.5000    49.3042     8.0972    73.2109    30.0607    29.4569    28.8889     2.3851     0.0441     0.1260
