~VERSION INFORMATION
 VERS.                 2.0:   CWLS LOG ASCII STANDARD - VERSION 2.0
 WRAP.                  NO:   SINGLE LINE PER DEPTH STEP
 CREA.                 22/09/2026 10:10:00
#CREATED USING PANDAS VERSION 3.0.5 BY GIECAR/UFF ON 02/06/2020 16:50:42
~WELL INFORMATION
#MNEM.UNIT       DATA                          DESCRIPTION MNEMONIC
#---------      ---------------------------   --------------------------
 STRT    .M         1868.0001                 : START DEPTH
 STOP    .M         3172.9001                 : STOP DEPTH
 STEP    .M         0.1000                    : STEP VALUE
 NULL    .      -999.0000                     : NULL VALUE
 DATE    .      22/09/2026                    : LAS file Creation Date
 WELL   .      7-MP-56D-BA      : Well Name
 COMP   .      PETROBRAS        : Company
 FLD    .      MASSAPE          : Field
 STATE  .      BAHIA            : State
 API    .      20240028489      : API Number
 UWI    .                       : Unique Well Identifier (UWI)
 LOC    .                       : Location
 TOWN   .      -999.25          : Township
 SCT    .      -999.25          : Section
 RANG   .      -999.25          : Range
 PDAT   .      NM               : Permanent Datum
 EPDAT  .      0.0              : Elevation of Permanent Datum
 LGMEA  .      MR               : Log Measured from
 DRMEA  .      MR               : Drill Measured From
 APDAT  .      100.38           : Elevation Above Permanent Datum
 KB     .      100.68           : KB Elevation
 DF     .      100.38           : DF Elevation
 GL     .      90.98            : GL Elevation
 RWS    .      -999             : Def_Rw
 WST    .      -999             : Def_Rwt
 PROV   .                       : Province
 SRVC   .                       : Contractor
 GDAT   .      WGS 84           : Geodatum
 LONG   .      -38.4243922222985: Longitude
 LATI   .      0                : Latitude
 COORDIN.                       : Grid System
 XCOORD .                       : X or East-West Coordinate
 YCOORD .                       : Y or North-South Coordinate
~CURVE INFORMATION
#MNEM              UNIT       API CODE   Curve Type Comments
#----------  --------------- ----------  ---------- -----------
 DEPTH      .M                         : Depth       Loaded from DLIS: 7-mp-56d-ba_raw-1-6949.dlis
 BS         .in                        : BitSize     Loaded from DLIS: 7-mp-56d-ba_raw-1-6949.dlis
 GR         .gapi                      : GammaRay    Loaded from DLIS: 7-mp-56d-ba_raw-1-6949.dlis
 CALI       .in                        : Caliper     Loaded from DLIS: 7-mp-56d-ba_raw-1-6949.dlis   
 DT         .uspf                      : Sonic       Loaded from DLIS: 7-mp-56d-ba_raw-1-6949.dlis
 RT30       .ohmm                      : DeepRes     Loaded from DLIS: 7-mp-56d-ba_raw-1-6949.dlis
 RT60       .ohmm                      : DeepRes     Loaded from DLIS: 7-mp-56d-ba_raw-1-6949.dlis
 RT90       .ohmm                      : DeepRes     Loaded from DLIS: 7-mp-56d-ba_raw-1-6949.dlis
 RHOB       .g/cc                      : Density     Loaded from DLIS: 7-mp-56d-ba_raw-1-6949.dlis
 DRHO       .g/cc                      : Density     Loaded from DLIS: 7-mp-56d-ba_raw-1-6949.dlis
 NPHI       .decp                      : Neutron     Loaded from DLIS: 7-mp-56d-ba_raw-1-6949.dlis         
~A  DEPTH        BS        GR         CALI       DT         RT30       RT60       RT90       RHOB       DRHO       NPHI
# ...
 2732.3001     8.5000    84.9684     8.5753    82.5282     4.9171     4.8578     4.8561     2.5559    -0.0315     0.2284
 2732.4001     8.5000    82.9008     8.5885    84.7251     4.7136     4.6657     4.6646     2.5592    -0.0267     0.2352
 2732.5001     8.5000    90.0156     8.5906    87.1927     4.2138     4.1837     4.1827     2.5409    -0.0183     0.2513
 2732.6001     8.5000    96.3638     8.5689    88.9460     4.0178     3.9933     3.9920     2.5353    -0.0143     0.2631
 2732.7001     8.5000   101.4975     8.5395    89.6541     3.8660     3.8458     3.8441     2.5378    -0.0109     0.2631
 2732.8001     8.5000   104.7797     8.5639    89.4037     3.6357     3.6216     3.6190     2.5699    -0.0038     0.2694
 2732.9001     8.5000   105.2278     8.5861    88.6517     3.5514     3.5393     3.5362     2.5843    -0.0022     0.2626
 2733.0001     8.5000   106.5053     8.6082    87.8242     3.4987     3.4880     3.4845     2.5921    -0.0022     0.2631
 2733.1001     8.5000   106.7294     8.6265    87.3200     3.4871     3.4773     3.4734     2.5957    -0.0027     0.2713
 2733.2001     8.5000   108.0816     8.6174    87.3231     3.5959     3.5866     3.5821     2.5848    -0.0040     0.2641
 2733.3001     8.5000   107.5784     8.6242    87.7693     3.6958     3.6860     3.6812     2.5762    -0.0041     0.2687
 2733.4001     8.5000   107.4330     8.6273    88.4759     3.7991     3.7885     3.7835     2.5631    -0.0036     0.2778
 2733.5001     8.5000   104.0996     8.6641    89.5546     3.9415     3.9280     3.9232     2.5419    -0.0032     0.2789
 2733.6001     8.5000   103.7302     8.6860    90.5510     3.9567     3.9413     3.9369     2.5391    -0.0019     0.2733
 2733.7001     8.5000   103.3017     8.6866    91.2192     3.9285     3.9109     3.9072     2.5359    -0.0027     0.2852
 2733.8001     8.5000   103.9975     8.7125    91.6752     3.7835     3.7617     3.7592     2.5418    -0.0024     0.2921
 2733.9001     8.5000   104.8151     8.7109    92.0001     3.7155     3.6913     3.6894     2.5423    -0.0026     0.2896
 2734.0001     8.5000   104.6539     8.7127    91.8400     3.6939     3.6669     3.6656     2.5484    -0.0013     0.2941
 2734.1001     8.5000   102.1814     8.7180    91.2369     3.9202     3.8848     3.8841     2.5544     0.0027     0.2837
 2734.2001     8.5000   100.5305     8.7161    90.2833     4.1928     4.1507     4.1502     2.5552     0.0039     0.2749
 2734.3001     8.5000    97.8850     8.7197    89.3059     4.5254     4.4750     4.4744     2.5558     0.0055     0.2814
 2734.4001     8.5000    92.1618     8.7222    88.5939     4.9709     4.9047     4.9028     2.5534     0.0068     0.2674
 2734.5001     8.5000    88.9228     8.7152    88.4146     4.9287     4.8584     4.8554     2.5546     0.0082     0.2539
 2734.6001     8.5000    87.7239     8.7021    88.7859     4.7534     4.6807     4.6761     2.5517     0.0088     0.2436
 2734.7001     8.5000    87.7003     8.7201    89.4369     4.5450     4.4720     4.4662     2.5553     0.0102     0.2465
 2734.8001     8.5000    93.2467     8.7364    89.9558     4.2496     4.1777     4.1691     2.5596     0.0091     0.2492
 2734.9001     8.5000    95.5344     8.7363    89.8883     4.1662     4.0935     4.0834     2.5673     0.0089     0.2509
 2735.0001     8.5000    96.8237     8.7428    89.3901     4.0899     4.0165     4.0048     2.5695     0.0077     0.2587
 2735.1001     8.5000    99.6382     8.7213    88.6980     3.8743     3.8025     3.7886     2.5782     0.0056     0.2648
 2735.2001     8.5000   103.2585     8.7086    87.7898     3.7538     3.6838     3.6692     2.5819     0.0037     0.2626
 2735.3001     8.5000   106.0100     8.6843    87.1980     3.6545     3.5858     3.5707     2.5878     0.0014     0.2651
 2735.4001     8.5000   110.8095     8.6440    86.8131     3.5338     3.4657     3.4496     2.6055     0.0006     0.2780
 2735.5001     8.5000   111.3127     8.6308    86.9165     3.4937     3.4256     3.4093     2.6107    -0.0006     0.2736
 2735.6001     8.5000   111.8001     8.6199    86.8545     3.4636     3.3956     3.3792     2.6133    -0.0013     0.2677
 2735.7001     8.5000   108.9385     8.5897    86.1161     3.5123     3.4409     3.4242     2.6074    -0.0056     0.2545
 2735.8001     8.5000   107.0085     8.5855    84.8273     3.6482     3.5710     3.5536     2.6051    -0.0067     0.2532
 2735.9001     8.5000   104.3119     8.5984    83.4218     3.8847     3.7973     3.7784     2.6042    -0.0078     0.2403
 2736.0001     8.5000    97.2640     8.5940    81.6892     4.6081     4.4868     4.4641     2.6024    -0.0096     0.2308
 2736.1001     8.5000    93.7066     8.5684    79.5527     5.0347     4.8915     4.8671     2.6011    -0.0102     0.2202
 2736.2001     8.5000    91.1123     8.5919    77.3337     5.4871     5.3195     5.2938     2.6009    -0.0105     0.2022
 2736.3001     8.5000    90.7467     8.6086    75.9147     5.9659     5.7712     5.7447     2.6006    -0.0106     0.1934
 2736.4001     8.5000    88.7813     8.6188    74.9464     6.8872     6.6339     6.6077     2.6023    -0.0117     0.1900
 2736.5001     8.5000    86.7962     8.6259    74.1766     7.2343     6.9544     6.9294     2.6008    -0.0125     0.1831
 2736.6001     8.5000    83.2428     8.6122    73.7732     7.4421     7.1422     7.1185     2.6018    -0.0133     0.1781
 2736.7001     8.5000    81.0848     8.6056    74.0983     7.2892     6.9936     6.9721     2.6062    -0.0141     0.1727
 2736.8001     8.5000    81.1594     8.5960    74.9243     6.9386     6.6657     6.6447     2.6123    -0.0151     0.1729
 2736.9001     8.5000    83.0305     8.6016    76.8390     6.4682     6.2258     6.2048     2.6175    -0.0168     0.1741
 2737.0001     8.5000    87.1696     8.6070    78.4966     5.4860     5.3026     5.2813     2.6189    -0.0220     0.1871
 2737.1001     8.5000    91.4778     8.6216    80.2915     5.1119     4.9484     4.9263     2.6145    -0.0240     0.1939
 2737.2001     8.5000    94.9487     8.6220    81.2996     4.8559     4.7045     4.6810     2.6065    -0.0265     0.2081
 2737.3001     8.5000    98.0737     8.6025    81.1636     4.6617     4.5152     4.4862     2.5899    -0.0309     0.2273
 2737.4001     8.5000    97.8693     8.6337    80.7662     4.6655     4.5153     4.4824     2.5808    -0.0336     0.2319
 2737.5001     8.5000    98.5808     8.6376    80.6187     4.6804     4.5259     4.4889     2.5753    -0.0345     0.2314
 2737.6001     8.5000   100.9353     8.6361    80.9599     4.5861     4.4315     4.3887     2.5838    -0.0333     0.2201
 2737.7001     8.5000   102.1185     8.6414    81.5055     4.4459     4.2977     4.2542     2.5931    -0.0312     0.2238
 2737.8001     8.5000   103.3135     8.6417    82.2405     4.2780     4.1382     4.0951     2.6024    -0.0283     0.2274
 2737.9001     8.5000   104.3001     8.6389    82.6846     4.1344     4.0018     3.9591     2.6065    -0.0240     0.2369
 2738.0001     8.5000   106.4581     8.6451    82.6046     4.0405     3.9106     3.8664     2.6085    -0.0123     0.2511
 2738.1001     8.5000   107.4526     8.6511    81.9409     4.0846     3.9508     3.9045     2.6090    -0.0071     0.2423
 2738.2001     8.5000   107.6924     8.6590    81.1508     4.1650     4.0251     3.9761     2.6092    -0.0036     0.2393
 2738.3001     8.5000   105.0313     8.6695    80.2226     4.3785     4.2235     4.1688     2.6110     0.0039     0.2361
 2738.4001     8.5000   102.0989     8.6599    79.3472     4.4916     4.3287     4.2715     2.6098     0.0077     0.2370
 2738.5001     8.5000   100.3261     8.6463    78.5327     4.5996     4.4295     4.3702     2.6096     0.0113     0.2276
 2738.6001     8.5000    99.3945     8.6565    77.9522     4.7907     4.6088     4.5470     2.6023     0.0103     0.2298
 2738.7001     8.5000    99.3001     8.6465    77.3257     4.8675     4.6818     4.6197     2.6024     0.0072     0.2381
 2738.8001     8.5000    99.4181     8.6361    76.7846     4.9244     4.7367     4.6753     2.6045     0.0031     0.2319
 2738.9001     8.5000    98.1602     8.6256    76.5658     4.9462     4.7628     4.7056     2.6131    -0.0038     0.2244
