~VERSION INFORMATION
 VERS.                 2.0:   CWLS LOG ASCII STANDARD - VERSION 2.0
 WRAP.                  NO:   SINGLE LINE PER DEPTH STEP
 CREA.                 22/09/2026 10:10:00
#CREATED USING PANDAS VERSION 3.0.5 BY GIECAR/UFF ON 02/06/2020 16:50:42
~WELL INFORMATION
#MNEM.UNIT       DATA                          DESCRIPTION MNEMONIC
#---------      ---------------------------   --------------------------
 STRT    .M         1868.0001                 : START DEPTH
 STOP    .M         3172.9001                 : STOP DEPTH
 STEP    .M         0.1000                    : STEP VALUE
 NULL    .      -999.0000                     : NULL VALUE
 DATE    .      22/09/2026                    : LAS file Creation Date
 WELL   .      7-MP-56D-BA      : Well Name
 COMP   .      PETROBRAS        : Company
 FLD    .      MASSAPE          : Field
 STATE  .      BAHIA            : State
 API    .      20240028489      : API Number
 UWI    .                       : Unique Well Identifier (UWI)
 LOC    .                       : Location
 TOWN   .      -999.25          : Township
 SCT    .      -999.25          : Section
 RANG   .      -999.25          : Range
 PDAT   .      NM               : Permanent Datum
 EPDAT  .      0.0              : Elevation of Permanent Datum
 LGMEA  .      MR               : Log Measured from
 DRMEA  .      MR               : Drill Measured From
 APDAT  .      100.38           : Elevation Above Permanent Datum
 KB     .      100.68           : KB Elevation
 DF     .      100.38           : DF Elevation
 GL     .      90.98            : GL Elevation
 RWS    .      -999             : Def_Rw
 WST    .      -999             : Def_Rwt
 PROV   .                       : Province
 SRVC   .                       : Contractor
 GDAT   .      WGS 84           : Geodatum
 LONG   .      -38.4243922222985: Longitude
 LATI   .      0                : Latitude
 COORDIN.                       : Grid System
 XCOORD .                       : X or East-West Coordinate
 YCOORD .                       : Y or North-South Coordinate
~CURVE INFORMATION
#MNEM              UNIT       API CODE   Curve Type Comments
#----------  --------------- ----------  ---------- -----------
 DEPTH      .M                         : Depth       Loaded from DLIS: 7-mp-56d-ba_raw-1-6949.dlis
 BS         .in                        : BitSize     Loaded from DLIS: 7-mp-56d-ba_raw-1-6949.dlis
 GR         .gapi                      : GammaRay    Loaded from DLIS: 7-mp-56d-ba_raw-1-6949.dlis
 CALI       .in                        : Caliper     Loaded from DLIS: 7-mp-56d-ba_raw-1-6949.dlis   
 DT         .uspf                      : Sonic       Loaded from DLIS: 7-mp-56d-ba_raw-1-6949.dlis
 RT30       .ohmm                      : DeepRes     Loaded from DLIS: 7-mp-56d-ba_raw-1-6949.dlis
 RT60       .ohmm                      : DeepRes     Loaded from DLIS: 7-mp-56d-ba_raw-1-6949.dlis
 RT90       .ohmm                      : DeepRes     Loaded from DLIS: 7-mp-56d-ba_raw-1-6949.dlis
 RHOB       .g/cc                      : Density     Loaded from DLIS: 7-mp-56d-ba_raw-1-6949.dlis
 DRHO       .g/cc                      : Density     Loaded from DLIS: 7-mp-56d-ba_raw-1-6949.dlis
 NPHI       .decp                      : Neutron     Loaded from DLIS: 7-mp-56d-ba_raw-1-6949.dlis         
~A  DEPTH        BS        GR         CALI       DT         RT30       RT60       RT90       RHOB       DRHO       NPHI
# ...
 2390.6001     8.5000   103.7655     8.7392    88.2082     2.2221     2.1791     2.2003     2.5521    -0.0158     0.2573
 2390.7001     8.5000   102.7553     8.7238    87.6697     2.2650     2.2203     2.2428     2.5554    -0.0184     0.2482
 2390.8001     8.5000   101.4031     8.7158    86.8658     2.3110     2.2646     2.2884     2.5603    -0.0205     0.2371
 2390.9001     8.5000   100.0234     8.7295    86.0927     2.4014     2.3514     2.3782     2.5698    -0.0205     0.2341
 2391.0001     8.5000    99.5124     8.7256    85.3321     2.4489     2.3969     2.4255     2.5750    -0.0188     0.2344
 2391.1001     8.5000    98.1798     8.7196    84.8439     2.4937     2.4398     2.4701     2.5760    -0.0171     0.2360
 2391.2001     8.5000    95.9118     8.7361    84.3200     2.5525     2.4958     2.5291     2.5803    -0.0126     0.2260
 2391.3001     8.5000    94.9212     8.7388    83.9353     2.5589     2.5018     2.5361     2.5837    -0.0103     0.2222
 2391.4001     8.5000    94.9684     8.7238    83.9451     2.5520     2.4950     2.5298     2.5880    -0.0076     0.2153
 2391.5001     8.5000    97.4605     8.7174    84.1789     2.5175     2.4615     2.4967     2.5865    -0.0037     0.2172
 2391.6001     8.5000    97.9872     8.7052    84.5219     2.4985     2.4431     2.4784     2.5819    -0.0009     0.2233
 2391.7001     8.5000    97.4920     8.7017    85.0477     2.4813     2.4264     2.4618     2.5759     0.0014     0.2275
 2391.8001     8.5000    96.2420     8.7130    85.3608     2.4664     2.4121     2.4474     2.5678     0.0041     0.2227
 2391.9001     8.5000    95.6799     8.6582    85.5490     2.4484     2.3947     2.4302     2.5564     0.0064     0.2261
 2392.0001     8.5000    95.6681     8.6337    85.6065     2.4455     2.3920     2.4275     2.5556     0.0083     0.2222
 2392.1001     8.5000    94.1783     8.6223    85.5864     2.4452     2.3918     2.4275     2.5559     0.0100     0.2170
 2392.2001     8.5000    92.0556     8.6424    85.8597     2.4338     2.3812     2.4168     2.5577     0.0130     0.2112
 2392.3001     8.5000    92.2129     8.6189    86.3647     2.4078     2.3566     2.3914     2.5593     0.0138     0.2128
 2392.4001     8.5000    93.3371     8.6282    87.1517     2.3659     2.3168     2.3504     2.5632     0.0141     0.2166
 2392.5001     8.5000    93.2663     8.6371    87.8610     2.2696     2.2250     2.2560     2.5656     0.0138     0.2331
 2392.6001     8.5000    93.9071     8.6436    88.4289     2.2366     2.1936     2.2238     2.5604     0.0111     0.2401
 2392.7001     8.5000    95.4912     8.6471    88.5044     2.2244     2.1823     2.2123     2.5564     0.0079     0.2467
 2392.8001     8.5000    99.2372     8.6796    88.2493     2.2451     2.2032     2.2341     2.5636     0.0039     0.2379
 2392.9001     8.5000    97.9715     8.6910    87.9055     2.2546     2.2129     2.2443     2.5743     0.0035     0.2328
 2393.0001     8.5000    96.4424     8.6899    87.7490     2.2519     2.2110     2.2426     2.5851     0.0036     0.2293
 2393.1001     8.5000    96.5879     8.7171    87.7458     2.2231     2.1846     2.2163     2.5912    -0.0007     0.2262
 2393.2001     8.5000    97.4055     8.7310    87.6612     2.2242     2.1864     2.2187     2.5894    -0.0022     0.2356
 2393.3001     8.5000    97.0832     8.7347    87.1828     2.2560     2.2181     2.2519     2.5839    -0.0045     0.2396
 2393.4001     8.5000    96.2538     8.7281    86.4552     2.3226     2.2836     2.3200     2.5804    -0.0051     0.2450
 2393.5001     8.5000    95.8292     8.7326    85.5329     2.5171     2.4741     2.5185     2.5767    -0.0074     0.2335
 2393.6001     8.5000    96.9652     8.7419    84.4369     2.6055     2.5610     2.6094     2.5753    -0.0087     0.2233
 2393.7001     8.5000    96.6075     8.7238    83.6260     2.6654     2.6207     2.6721     2.5746    -0.0100     0.2157
 2393.8001     8.5000    92.2286     8.7331    83.0770     2.7133     2.6706     2.7253     2.5725    -0.0114     0.2088
 2393.9001     8.5000    89.0211     8.7233    82.7502     2.7303     2.6888     2.7447     2.5761    -0.0111     0.2121
 2394.0001     8.5000    87.0321     8.7338    82.4293     2.7546     2.7142     2.7715     2.5761    -0.0110     0.2055
 2394.1001     8.5000    88.9464     8.7228    82.2946     2.8043     2.7660     2.8257     2.5799    -0.0101     0.2011
 2394.2001     8.5000    91.4778     8.7239    82.3345     2.8055     2.7687     2.8283     2.5765    -0.0101     0.2019
 2394.3001     8.5000    93.9896     8.7171    82.8919     2.7773     2.7427     2.8009     2.5784    -0.0105     0.2055
 2394.4001     8.5000    97.6020     8.7235    83.5594     2.6706     2.6408     2.6938     2.5764    -0.0127     0.2159
 2394.5001     8.5000    99.0525     8.7345    84.2857     2.6188     2.5911     2.6413     2.5801    -0.0130     0.2153
 2394.6001     8.5000    99.8269     8.7205    85.2625     2.5739     2.5479     2.5957     2.5813    -0.0125     0.2277
 2394.7001     8.5000   100.6759     8.7061    86.0146     2.4949     2.4716     2.5147     2.5886    -0.0111     0.2263
 2394.8001     8.5000    99.8111     8.7097    86.5259     2.4582     2.4360     2.4767     2.5866    -0.0119     0.2199
 2394.9001     8.5000    99.8347     8.7169    86.8597     2.4311     2.4096     2.4483     2.5834    -0.0122     0.2236
 2395.0001     8.5000    99.4849     8.7195    86.9101     2.4218     2.4006     2.4378     2.5752    -0.0124     0.2280
 2395.1001     8.5000    98.8795     8.7245    86.8375     2.4492     2.4275     2.4629     2.5635    -0.0095     0.2376
 2395.2001     8.5000    98.1798     8.7001    86.7014     2.4667     2.4444     2.4789     2.5620    -0.0080     0.2341
 2395.3001     8.5000    97.0989     8.7179    86.5228     2.4752     2.4524     2.4857     2.5670    -0.0063     0.2380
 2395.4001     8.5000    94.9173     8.7049    86.3385     2.4790     2.4549     2.4854     2.5835    -0.0039     0.2345
 2395.5001     8.5000    93.7695     8.7112    86.2191     2.4898     2.4646     2.4940     2.5910    -0.0025     0.2356
 2395.6001     8.5000    93.8127     8.6890    86.1413     2.5104     2.4838     2.5123     2.5965    -0.0011     0.2451
 2395.7001     8.5000    96.2577     8.6973    86.0954     2.5704     2.5402     2.5672     2.6053     0.0021     0.2452
 2395.8001     8.5000    99.1979     8.6901    86.0249     2.6010     2.5687     2.5950     2.6096     0.0032     0.2442
 2395.9001     8.5000   102.2168     8.6827    85.7064     2.6300     2.5955     2.6211     2.6080     0.0034     0.2377
 2396.0001     8.5000   103.1956     8.6764    85.3968     2.7132     2.6730     2.6976     2.6006     0.0016     0.2293
 2396.1001     8.5000   102.1971     8.6715    84.8858     2.7837     2.7396     2.7641     2.5952     0.0001     0.2271
 2396.2001     8.5000   101.7254     8.6572    84.1163     2.8767     2.8275     2.8522     2.5963    -0.0013     0.2374
 2396.3001     8.5000   102.5195     8.6395    83.7739     3.0851     3.0236     3.0487     2.6008    -0.0023     0.2357
 2396.4001     8.5000   103.1287     8.6255    83.7507     3.1513     3.0844     3.1088     2.5995    -0.0030     0.2350
 2396.5001     8.5000   102.8497     8.6124    84.0722     3.1643     3.0941     3.1169     2.5931    -0.0025     0.2267
 2396.6001     8.5000   102.6256     8.6172    84.4147     3.1287     3.0572     3.0778     2.5791    -0.0033     0.2287
 2396.7001     8.5000    99.7247     8.5258    84.6506     3.0200     2.9484     2.9642     2.5499    -0.0026     0.2247
 2396.8001     8.5000    97.5824     8.5211    84.5579     3.0021     2.9290     2.9428     2.5412    -0.0014     0.2246
 2396.9001     8.5000    96.1633     8.5270    83.8712     3.0178     2.9417     2.9538     2.5416     0.0027     0.2253
 2397.0001     8.5000    96.2891     8.5200    82.8236     3.1134     3.0283     3.0371     2.5386     0.0095     0.2208
 2397.1001     8.5000    97.1696     8.4832    81.4005     3.1816     3.0909     3.0980     2.5368     0.0134     0.2169
 2397.2001     8.5000    96.3874     8.4423    80.1423     3.2634     3.1663     3.1714     2.5385     0.0162     0.2143
