~VERSION INFORMATION
 VERS.                 2.0:   CWLS LOG ASCII STANDARD - VERSION 2.0
 WRAP.                  NO:   SINGLE LINE PER DEPTH STEP
 CREA.                 22/09/2026 10:10:00
#CREATED USING PANDAS VERSION 3.0.5 BY GIECAR/UFF ON 02/06/2020 16:50:42
~WELL INFORMATION
#MNEM.UNIT       DATA                          DESCRIPTION MNEMONIC
#---------      ---------------------------   --------------------------
 STRT    .M         1868.0001                 : START DEPTH
 STOP    .M         3172.9001                 : STOP DEPTH
 STEP    .M         0.1000                    : STEP VALUE
 NULL    .      -999.0000                     : NULL VALUE
 DATE    .      22/09/2026                    : LAS file Creation Date
 WELL   .      7-MP-56D-BA      : Well Name
 COMP   .      PETROBRAS        : Company
 FLD    .      MASSAPE          : Field
 STATE  .      BAHIA            : State
 API    .      20240028489      : API Number
 UWI    .                       : Unique Well Identifier (UWI)
 LOC    .                       : Location
 TOWN   .      -999.25          : Township
 SCT    .      -999.25          : Section
 RANG   .      -999.25          : Range
 PDAT   .      NM               : Permanent Datum
 EPDAT  .      0.0              : Elevation of Permanent Datum
 LGMEA  .      MR               : Log Measured from
 DRMEA  .      MR               : Drill Measured From
 APDAT  .      100.38           : Elevation Above Permanent Datum
 KB     .      100.68           : KB Elevation
 DF     .      100.38           : DF Elevation
 GL     .      90.98            : GL Elevation
 RWS    .      -999             : Def_Rw
 WST    .      -999             : Def_Rwt
 PROV   .                       : Province
 SRVC   .                       : Contractor
 GDAT   .      WGS 84           : Geodatum
 LONG   .      -38.4243922222985: Longitude
 LATI   .      0                : Latitude
 COORDIN.                       : Grid System
 XCOORD .                       : X or East-West Coordinate
 YCOORD .                       : Y or North-South Coordinate
~CURVE INFORMATION
#MNEM              UNIT       API CODE   Curve Type Comments
#----------  --------------- ----------  ---------- -----------
 DEPTH      .M                         : Depth       Loaded from DLIS: 7-mp-56d-ba_raw-1-6949.dlis
 BS         .in                        : BitSize     Loaded from DLIS: 7-mp-56d-ba_raw-1-6949.dlis
 GR         .gapi                      : GammaRay    Loaded from DLIS: 7-mp-56d-ba_raw-1-6949.dlis
 CALI       .in                        : Caliper     Loaded from DLIS: 7-mp-56d-ba_raw-1-6949.dlis   
 DT         .uspf                      : Sonic       Loaded from DLIS: 7-mp-56d-ba_raw-1-6949.dlis
 RT30       .ohmm                      : DeepRes     Loaded from DLIS: 7-mp-56d-ba_raw-1-6949.dlis
 RT60       .ohmm                      : DeepRes     Loaded from DLIS: 7-mp-56d-ba_raw-1-6949.dlis
 RT90       .ohmm                      : DeepRes     Loaded from DLIS: 7-mp-56d-ba_raw-1-6949.dlis
 RHOB       .g/cc                      : Density     Loaded from DLIS: 7-mp-56d-ba_raw-1-6949.dlis
 DRHO       .g/cc                      : Density     Loaded from DLIS: 7-mp-56d-ba_raw-1-6949.dlis
 NPHI       .decp                      : Neutron     Loaded from DLIS: 7-mp-56d-ba_raw-1-6949.dlis         
~A  DEPTH        BS        GR         CALI       DT         RT30       RT60       RT90       RHOB       DRHO       NPHI
 1868.0001     8.5000    96.0140     9.6470    91.3812     2.4726     2.4300     2.4973  -999.0000  -999.0000  -999.0000
 1868.1001     8.5000    96.2027     9.5881    91.0722     2.4536     2.4127     2.4801     2.4487     0.1205     0.2884
 1868.2001     8.5000    97.7789     9.5809    90.1369     2.4079     2.3687     2.4348     2.4563     0.0974     0.2830
 1868.3001     8.5000    98.0069     9.5892    89.3943     2.3368     2.3003     2.3639     2.4703     0.0721     0.2830
 1868.4001     8.5000    98.5336     9.4958    89.6868     2.1647     2.1346     2.1917     2.5003     0.0396     0.2731
 1868.5001     8.5000    97.3504     9.4718    90.6422     2.0933     2.0659     2.1202     2.5141     0.0388     0.2752
 1868.6001     8.5000    95.8921     9.4497    91.3969     2.0403     2.0153     2.0675     2.5202     0.0430     0.2726
 1868.7001     8.5000    96.5093     9.4471    91.8678     1.9996     1.9780     2.0291     2.5250     0.0572     0.2697
 1868.8001     8.5000    98.3449     9.4697    91.8298     2.0069     1.9866     2.0385     2.5209     0.0597     0.2641
 1868.9001     8.5000    99.7836     9.4794    91.7363     2.0243     2.0052     2.0584     2.5161     0.0592     0.2607
 1869.0001     8.5000    97.3858     9.4841    91.2692     2.0808     2.0641     2.1208     2.5118     0.0531     0.2555
 1869.1001     8.5000    95.3575     9.5188    90.6820     2.1168     2.1013     2.1600     2.5154     0.0508     0.2529
 1869.2001     8.5000    94.4456     9.5302    90.1605     2.1541     2.1399     2.2005     2.5218     0.0468     0.2539
 1869.3001     8.5000    95.0077     9.5336    89.6542     2.1912     2.1783     2.2406     2.5267     0.0422     0.2598
 1869.4001     8.5000    95.5777     9.5157    88.9720     2.2603     2.2501     2.3153     2.5394     0.0330     0.2692
 1869.5001     8.5000    95.6720     9.5064    88.4919     2.2900     2.2809     2.3473     2.5388     0.0314     0.2714
 1869.6001     8.5000    95.6602     9.5328    88.5109     2.3152     2.3072     2.3747     2.5355     0.0301     0.2548
 1869.7001     8.5000    98.5415     9.4683    88.5381     2.3486     2.3420     2.4110     2.5248     0.0251     0.2433
 1869.8001     8.5000   100.2592     9.4585    88.5056     2.3554     2.3491     2.4186     2.5273     0.0214     0.2525
 1869.9001     8.5000   101.4070     9.4682    88.6017     2.3565     2.3503     2.4201     2.5349     0.0192     0.2564
 1870.0001     8.5000   101.0886     9.4558    88.9876     2.3329     2.3263     2.3959     2.5483     0.0205     0.2585
 1870.1001     8.5000   100.1924     9.4508    89.5886     2.3012     2.2942     2.3630     2.5465     0.0220     0.2573
 1870.2001     8.5000    99.8072     9.4461    90.1820     2.2609     2.2534     2.3211     2.5382     0.0225     0.2620
 1870.3001     8.5000    96.7687     9.4492    90.6655     2.2087     2.1999     2.2664     2.5233     0.0246     0.2669
 1870.4001     8.5000    94.2137     9.4581    91.0300     2.2127     2.2032     2.2699     2.5228     0.0284     0.2707
 1870.5001     8.5000    92.3505     9.4528    91.0414     2.2291     2.2187     2.2861     2.5245     0.0328     0.2666
 1870.6001     8.5000    93.3017     9.4689    90.5780     2.2619     2.2502     2.3188     2.5333     0.0377     0.2631
 1870.7001     8.5000    94.4731     9.4910    89.7777     2.2677     2.2553     2.3243     2.5362     0.0362     0.2657
 1870.8001     8.5000    95.4676     9.4929    89.0814     2.2655     2.2526     2.3217     2.5411     0.0343     0.2679
 1870.9001     8.5000    96.3953     9.4697    88.6616     2.2581     2.2448     2.3139     2.5440     0.0316     0.2602
 1871.0001     8.5000    97.8968     9.4370    88.4914     2.2416     2.2278     2.2967     2.5421     0.0246     0.2699
 1871.1001     8.5000    97.4880     9.4318    88.7830     2.2348     2.2210     2.2898     2.5386     0.0202     0.2776
 1871.2001     8.5000    96.5093     9.4328    89.4747     2.2275     2.2137     2.2823     2.5340     0.0161     0.2745
 1871.3001     8.5000    93.7813     9.4590    90.2437     2.2119     2.1983     2.2664     2.5299     0.0100     0.2610
 1871.4001     8.5000    94.0407     9.4624    90.5974     2.2074     2.1939     2.2618     2.5273     0.0071     0.2564
 1871.5001     8.5000    93.9110     9.4417    90.7920     2.2063     2.1931     2.2606     2.5250     0.0045     0.2646
 1871.6001     8.5000    91.0415     9.4196    90.9407     2.2124     2.1998     2.2665     2.5191     0.0005     0.2570
 1871.7001     8.5000    89.5006     9.4103    91.0011     2.2139     2.2017     2.2677     2.5167     0.0002     0.2492
 1871.8001     8.5000    90.4637     9.3928    90.8803     2.2135     2.2018     2.2667     2.5167     0.0001     0.2530
 1871.9001     8.5000    95.8567     9.3829    90.7368     2.2134     2.2027     2.2650     2.5179     0.0013     0.2643
 1872.0001     8.5000    98.7184     9.3915    90.6277     2.2130     2.2029     2.2637     2.5211     0.0028     0.2675
 1872.1001     8.5000    99.1979     9.4037    90.4033     2.2084     2.1989     2.2578     2.5235     0.0054     0.2642
 1872.2001     8.5000   100.9039     9.4388    90.3403     2.1721     2.1638     2.2175     2.5317     0.0118     0.2680
 1872.3001     8.5000   101.6272     9.4408    90.8515     2.1377     2.1300     2.1805     2.5326     0.0150     0.2684
 1872.4001     8.5000   101.9927     9.4578    92.1752     2.0917     2.0846     2.1315     2.5320     0.0187     0.2728
 1872.5001     8.5000   100.1846     9.4611    93.7700     2.0376     2.0308     2.0740     2.5239     0.0221     0.2794
 1872.6001     8.5000    96.6822     9.4548    95.0556     1.9413     1.9349     1.9709     2.5004     0.0257     0.2867
 1872.7001     8.5000    95.7742     9.4618    95.0929     1.9213     1.9146     1.9476     2.4904     0.0224     0.2790
 1872.8001     8.5000    96.3049     9.4403    94.3125     1.9278     1.9207     1.9511     2.4898     0.0176     0.2707
 1872.9001     8.5000    93.1602     9.4348    93.0381     1.9919     1.9828     2.0086     2.5065     0.0096     0.2606
 1873.0001     8.5000    89.2058     9.4411    92.0379     2.0250     2.0145     2.0380     2.5166     0.0092     0.2569
 1873.1001     8.5000    85.4558     9.4204    91.8518     2.0452     2.0329     2.0539     2.5228     0.0099     0.2597
 1873.2001     8.5000    83.6476     9.3961    92.2300     2.0442     2.0274     2.0436     2.5240     0.0117     0.2481
 1873.3001     8.5000    84.8623     9.4065    92.7045     2.0353     2.0159     2.0300     2.5229     0.0116     0.2479
 1873.4001     8.5000    86.2027     9.3987    92.8973     2.0236     2.0015     2.0136     2.5217     0.0114     0.2485
 1873.5001     8.5000    87.9991     9.3569    93.1581     2.0008     1.9733     1.9822     2.5219     0.0085     0.2521
 1873.6001     8.5000    87.6807     9.3558    93.4508     1.9916     1.9612     1.9689     2.5217     0.0072     0.2514
 1873.7001     8.5000    86.9888     9.3638    93.3495     1.9823     1.9492     1.9561     2.5234     0.0055     0.2500
 1873.8001     8.5000    86.2184     9.3704    93.1440     1.9759     1.9375     1.9435     2.5206     0.0028     0.2468
 1873.9001     8.5000    87.9558     9.3924    93.0709     1.9904     1.9491     1.9551     2.5151     0.0009     0.2432
 1874.0001     8.5000    89.1704     9.3924    92.2207     2.0194     1.9748     1.9812     2.5042    -0.0010     0.2535
 1874.1001     8.5000    91.0533     9.4029    90.2334     2.0570     2.0090     2.0161     2.4959    -0.0014     0.2502
 1874.2001     8.5000    90.8882     9.3949    88.1111     2.1687     2.1130     2.1224     2.4918    -0.0005     0.2523
 1874.3001     8.5000    90.6681     9.3970    86.7434     2.2831     2.2208     2.2325     2.5034     0.0017     0.2450
 1874.4001     8.5000    89.5321     9.3923    85.6823     2.4580     2.3859     2.4010     2.5159     0.0035     0.2427
 1874.5001     8.5000    84.2805     9.3943    84.4898     2.8559     2.7601     2.7851     2.5355     0.0069     0.2336
 1874.6001     8.5000    81.5722     9.4223    83.6086     2.9641     2.8618     2.8914     2.5386     0.0108     0.2226
