~VERSION INFORMATION
 VERS.                 2.0:   CWLS LOG ASCII STANDARD - VERSION 2.0
 WRAP.                  NO:   SINGLE LINE PER DEPTH STEP
 CREA.                 22/09/2026 10:10:00
#CREATED USING PANDAS VERSION 3.0.5 BY GIECAR/UFF ON 02/06/2020 16:50:42
~WELL INFORMATION
#MNEM.UNIT       DATA                          DESCRIPTION MNEMONIC
#---------      ---------------------------   --------------------------
 STRT    .M         1868.0001                 : START DEPTH
 STOP    .M         3172.9001                 : STOP DEPTH
 STEP    .M         0.1000                    : STEP VALUE
 NULL    .      -999.0000                     : NULL VALUE
 DATE    .      22/09/2026                    : LAS file Creation Date
 WELL   .      7-MP-56D-BA      : Well Name
 COMP   .      PETROBRAS        : Company
 FLD    .      MASSAPE          : Field
 STATE  .      BAHIA            : State
 API    .      20240028489      : API Number
 UWI    .                       : Unique Well Identifier (UWI)
 LOC    .                       : Location
 TOWN   .      -999.25          : Township
 SCT    .      -999.25          : Section
 RANG   .      -999.25          : Range
 PDAT   .      NM               : Permanent Datum
 EPDAT  .      0.0              : Elevation of Permanent Datum
 LGMEA  .      MR               : Log Measured from
 DRMEA  .      MR               : Drill Measured From
 APDAT  .      100.38           : Elevation Above Permanent Datum
 KB     .      100.68           : KB Elevation
 DF     .      100.38           : DF Elevation
 GL     .      90.98            : GL Elevation
 RWS    .      -999             : Def_Rw
 WST    .      -999             : Def_Rwt
 PROV   .                       : Province
 SRVC   .                       : Contractor
 GDAT   .      WGS 84           : Geodatum
 LONG   .      -38.4243922222985: Longitude
 LATI   .      0                : Latitude
 COORDIN.                       : Grid System
 XCOORD .                       : X or East-West Coordinate
 YCOORD .                       : Y or North-South Coordinate
~CURVE INFORMATION
#MNEM              UNIT       API CODE   Curve Type Comments
#----------  --------------- ----------  ---------- -----------
 DEPTH      .M                         : Depth       Loaded from DLIS: 7-mp-56d-ba_raw-1-6949.dlis
 BS         .in                        : BitSize     Loaded from DLIS: 7-mp-56d-ba_raw-1-6949.dlis
 GR         .gapi                      : GammaRay    Loaded from DLIS: 7-mp-56d-ba_raw-1-6949.dlis
 CALI       .in                        : Caliper     Loaded from DLIS: 7-mp-56d-ba_raw-1-6949.dlis   
 DT         .uspf                      : Sonic       Loaded from DLIS: 7-mp-56d-ba_raw-1-6949.dlis
 RT30       .ohmm                      : DeepRes     Loaded from DLIS: 7-mp-56d-ba_raw-1-6949.dlis
 RT60       .ohmm                      : DeepRes     Loaded from DLIS: 7-mp-56d-ba_raw-1-6949.dlis
 RT90       .ohmm                      : DeepRes     Loaded from DLIS: 7-mp-56d-ba_raw-1-6949.dlis
 RHOB       .g/cc                      : Density     Loaded from DLIS: 7-mp-56d-ba_raw-1-6949.dlis
 DRHO       .g/cc                      : Density     Loaded from DLIS: 7-mp-56d-ba_raw-1-6949.dlis
 NPHI       .decp                      : Neutron     Loaded from DLIS: 7-mp-56d-ba_raw-1-6949.dlis         
~A  DEPTH        BS        GR         CALI       DT         RT30       RT60       RT90       RHOB       DRHO       NPHI
# ...
 2042.2001     8.5000    63.6477     8.6828    66.1501    11.2266    10.5076    10.5964     2.5658     0.0107     0.0732
 2042.3001     8.5000    63.3411     8.7102    66.6656    10.8491    10.1995    10.2634     2.5723     0.0095     0.0704
 2042.4001     8.5000    66.7412     8.6809    67.9448    10.0067     9.4671     9.5020     2.5801     0.0088     0.0726
 2042.5001     8.5000    72.1893     8.6908    69.9827     8.9325     8.5015     8.5113     2.5837     0.0078     0.0770
 2042.6001     8.5000    86.3442     8.6996    71.8961     6.9964     6.7206     6.7013     2.5781     0.0056     0.1046
 2042.7001     8.5000    94.0957     8.7039    72.9535     6.3811     6.1487     6.1223     2.5770     0.0067     0.1283
 2042.8001     8.5000   100.9118     8.7049    73.4282     5.9900     5.7853     5.7528     2.5804     0.0077     0.1477
 2042.9001     8.5000   105.9589     8.7450    74.1208     5.4821     5.3109     5.2687     2.5959     0.0058     0.1594
 2043.0001     8.5000   104.1940     8.7494    75.5784     5.1610     5.0030     4.9591     2.6008     0.0011     0.1606
 2043.1001     8.5000   102.2286     8.7653    77.8977     4.7387     4.5953     4.5531     2.5988    -0.0026     0.1650
 2043.2001     8.5000   101.2105     8.8059    80.7070     3.7691     3.6641     3.6315     2.5910    -0.0038     0.1785
 2043.3001     8.5000   104.3080     8.7841    83.9989     3.3479     3.2592     3.2317     2.5867    -0.0016     0.1933
 2043.4001     8.5000   107.5784     8.7783    86.7891     3.0188     2.9416     2.9181     2.5833    -0.0000     0.2136
 2043.5001     8.5000   115.4400     8.7639    88.4388     2.6226     2.5559     2.5375     2.5705     0.0013     0.2399
 2043.6001     8.5000   118.5454     8.7427    88.7971     2.5259     2.4597     2.4429     2.5627     0.0021     0.2403
 2043.7001     8.5000   122.0949     8.6995    88.1889     2.4776     2.4096     2.3941     2.5571     0.0035     0.2428
 2043.8001     8.5000   125.9432     8.6900    87.3673     2.4891     2.4109     2.3974     2.5517     0.0052     0.2548
 2043.9001     8.5000   126.4581     8.7204    86.5151     2.5461     2.4586     2.4462     2.5504     0.0043     0.2490
 2044.0001     8.5000   125.5186     8.7355    84.9015     2.6377     2.5375     2.5263     2.5465     0.0019     0.2504
 2044.1001     8.5000   122.8418     8.7434    83.2746     2.7550     2.6380     2.6285     2.5408    -0.0001     0.2417
 2044.2001     8.5000   119.0918     8.6851    81.8298     3.0034     2.8442     2.8401     2.5285    -0.0013     0.2241
 2044.3001     8.5000   120.3575     8.6170    80.3244     3.1040     2.9219     2.9217     2.5252     0.0044     0.2173
 2044.4001     8.5000   122.9754     8.6010    79.3626     3.1728     2.9690     2.9732     2.5239     0.0120     0.2195
 2044.5001     8.5000   126.0178     8.5619    78.7365     3.2442     3.0001     3.0137     2.5197     0.0292     0.2189
 2044.6001     8.5000   124.0171     8.5477    78.1612     3.2687     3.0041     3.0223     2.5188     0.0338     0.2153
 2044.7001     8.5000   121.6782     8.5416    76.9855     3.2941     3.0078     3.0307     2.5179     0.0374     0.2046
 2044.8001     8.5000   114.8504     8.5385    75.3373     3.3738     3.0356     3.0680     2.5187     0.0407     0.1836
 2044.9001     8.5000   107.3976     8.4985    73.4862     3.3973     3.0347     3.0712     2.5116     0.0399     0.1760
 2045.0001     8.5000    96.3166     8.5138    72.0115     3.3732     2.9956     3.0349     2.4971     0.0364     0.1633
 2045.1001     8.5000    70.7821     8.5153    71.0452     3.2095     2.8294     2.8702     2.4564     0.0254     0.1313
 2045.2001     8.5000    61.4543     8.4956    70.6281     3.0822     2.7131     2.7529     2.4399     0.0205     0.1196
 2045.3001     8.5000    54.6618     8.5230    71.2955     2.9374     2.5848     2.6228     2.4293     0.0164     0.1165
 2045.4001     8.5000    45.6996     8.5338    71.7933     2.6383     2.3249     2.3580     2.4114     0.0097     0.1117
 2045.5001     8.5000    41.6548     8.5310    71.9489     2.4910     2.1985     2.2289     2.3998     0.0069     0.1111
 2045.6001     8.5000    39.2138     8.5574    71.7910     2.3528     2.0799     2.1078     2.3855     0.0048     0.1123
 2045.7001     8.5000    37.0007     8.5358    71.4951     2.2306     1.9747     2.0003     2.3762     0.0042     0.1092
 2045.8001     8.5000    35.4677     8.5444    71.1074     2.0551     1.8201     1.8425     2.3550     0.0029     0.1037
 2045.9001     8.5000    33.2193     8.5573    71.0875     2.0023     1.7712     1.7926     2.3540     0.0035     0.1029
 2046.0001     8.5000    31.2578     8.5477    71.5776     1.9675     1.7368     1.7575     2.3525     0.0034     0.1045
 2046.1001     8.5000    30.4481     8.5428    72.3159     1.9224     1.6880     1.7080     2.3652     0.0042     0.1081
 2046.2001     8.5000    32.0558     8.5438    73.0813     1.8973     1.6622     1.6817     2.3665     0.0036     0.1079
 2046.3001     8.5000    33.4866     8.5397    73.7132     1.8690     1.6343     1.6533     2.3656     0.0028     0.1089
 2046.4001     8.5000    34.2649     8.5416    74.0476     1.8235     1.5879     1.6061     2.3517     0.0000     0.1171
 2046.5001     8.5000    34.3435     8.5530    74.0479     1.8121     1.5738     1.5919     2.3423    -0.0017     0.1207
 2046.6001     8.5000    34.3710     8.5322    73.6918     1.8094     1.5665     1.5846     2.3339    -0.0039     0.1207
 2046.7001     8.5000    34.2688     8.5362    73.2752     1.8244     1.5679     1.5861     2.3212    -0.0078     0.1116
 2046.8001     8.5000    33.3018     8.5322    73.0614     1.8318     1.5688     1.5871     2.3195    -0.0092     0.1048
 2046.9001     8.5000    32.7004     8.5458    72.7493     1.8325     1.5650     1.5832     2.3204    -0.0097     0.1028
 2047.0001     8.5000    33.1249     8.5272    72.6939     1.8138     1.5440     1.5614     2.3293    -0.0102     0.1064
 2047.1001     8.5000    34.1981     8.5489    72.6211     1.7991     1.5302     1.5471     2.3381    -0.0099     0.1091
 2047.2001     8.5000    35.3576     8.5410    72.3895     1.7843     1.5169     1.5332     2.3466    -0.0092     0.1142
 2047.3001     8.5000    36.8749     8.5208    72.1967     1.7705     1.5047     1.5203     2.3538    -0.0084     0.1158
 2047.4001     8.5000    37.4252     8.5202    72.1776     1.7402     1.4798     1.4937     2.3560    -0.0059     0.1190
 2047.5001     8.5000    37.0125     8.5305    72.3398     1.7229     1.4664     1.4794     2.3528    -0.0048     0.1201
 2047.6001     8.5000    34.9370     8.5274    72.6785     1.7042     1.4525     1.4644     2.3487    -0.0034     0.1158
 2047.7001     8.5000    31.2735     8.5403    72.9761     1.6632     1.4232     1.4329     2.3447    -0.0009     0.1120
 2047.8001     8.5000    29.6580     8.5297    73.0406     1.6445     1.4104     1.4189     2.3422     0.0000     0.1149
 2047.9001     8.5000    29.1823     8.5418    72.9450     1.6315     1.4022     1.4095     2.3411     0.0008     0.1123
 2048.0001     8.5000    30.0314     8.5338    73.1598     1.6307     1.4051     1.4103     2.3418     0.0025     0.1140
 2048.1001     8.5000    31.4543     8.5351    73.4381     1.6405     1.4147     1.4188     2.3446     0.0032     0.1210
 2048.2001     8.5000    33.8168     8.5397    73.3054     1.6546     1.4276     1.4307     2.3459     0.0032     0.1230
 2048.3001     8.5000    36.2932     8.5439    73.2542     1.6912     1.4607     1.4615     2.3400     0.0016     0.1160
 2048.4001     8.5000    36.0377     8.5306    73.3773     1.7146     1.4813     1.4811     2.3378     0.0008     0.1172
 2048.5001     8.5000    34.7641     8.5341    73.5804     1.7422     1.5054     1.5040     2.3349    -0.0004     0.1161
 2048.6001     8.5000    33.8639     8.5362    73.6285     1.8082     1.5618     1.5581     2.3378    -0.0039     0.1156
 2048.7001     8.5000    34.4182     8.5393    73.7111     1.8445     1.5926     1.5877     2.3380    -0.0056     0.1154
 2048.8001     8.5000    35.1021     8.5334    74.0932     1.8819     1.6243     1.6182     2.3387    -0.0069     0.1163
