~VERSION INFORMATION
 VERS.                 2.0:   CWLS LOG ASCII STANDARD - VERSION 2.0
 WRAP.                  NO:   SINGLE LINE PER DEPTH STEP
 CREA.                 22/09/2026 10:10:00
#CREATED USING PANDAS VERSION 3.0.5 BY GIECAR/UFF ON 02/06/2020 16:50:42
~WELL INFORMATION
#MNEM.UNIT       DATA                          DESCRIPTION MNEMONIC
#---------      ---------------------------   --------------------------
 STRT    .M         1868.0001                 : START DEPTH
 STOP    .M         3172.9001                 : STOP DEPTH
 STEP    .M         0.1000                    : STEP VALUE
 NULL    .      -999.0000                     : NULL VALUE
 DATE    .      22/09/2026                    : LAS file Creation Date
 WELL   .      7-MP-56D-BA      : Well Name
 COMP   .      PETROBRAS        : Company
 FLD    .      MASSAPE          : Field
 STATE  .      BAHIA            : State
 API    .      20240028489      : API Number
 UWI    .                       : Unique Well Identifier (UWI)
 LOC    .                       : Location
 TOWN   .      -999.25          : Township
 SCT    .      -999.25          : Section
 RANG   .      -999.25          : Range
 PDAT   .      NM               : Permanent Datum
 EPDAT  .      0.0              : Elevation of Permanent Datum
 LGMEA  .      MR               : Log Measured from
 DRMEA  .      MR               : Drill Measured From
 APDAT  .      100.38           : Elevation Above Permanent Datum
 KB     .      100.68           : KB Elevation
 DF     .      100.38           : DF Elevation
 GL     .      90.98            : GL Elevation
 RWS    .      -999             : Def_Rw
 WST    .      -999             : Def_Rwt
 PROV   .                       : Province
 SRVC   .                       : Contractor
 GDAT   .      WGS 84           : Geodatum
 LONG   .      -38.4243922222985: Longitude
 LATI   .      0                : Latitude
 COORDIN.                       : Grid System
 XCOORD .                       : X or East-West Coordinate
 YCOORD .                       : Y or North-South Coordinate
~CURVE INFORMATION
#MNEM              UNIT       API CODE   Curve Type Comments
#----------  --------------- ----------  ---------- -----------
 DEPTH      .M                         : Depth       Loaded from DLIS: 7-mp-56d-ba_raw-1-6949.dlis
 BS         .in                        : BitSize     Loaded from DLIS: 7-mp-56d-ba_raw-1-6949.dlis
 GR         .gapi                      : GammaRay    Loaded from DLIS: 7-mp-56d-ba_raw-1-6949.dlis
 CALI       .in                        : Caliper     Loaded from DLIS: 7-mp-56d-ba_raw-1-6949.dlis   
 DT         .uspf                      : Sonic       Loaded from DLIS: 7-mp-56d-ba_raw-1-6949.dlis
 RT30       .ohmm                      : DeepRes     Loaded from DLIS: 7-mp-56d-ba_raw-1-6949.dlis
 RT60       .ohmm                      : DeepRes     Loaded from DLIS: 7-mp-56d-ba_raw-1-6949.dlis
 RT90       .ohmm                      : DeepRes     Loaded from DLIS: 7-mp-56d-ba_raw-1-6949.dlis
 RHOB       .g/cc                      : Density     Loaded from DLIS: 7-mp-56d-ba_raw-1-6949.dlis
 DRHO       .g/cc                      : Density     Loaded from DLIS: 7-mp-56d-ba_raw-1-6949.dlis
 NPHI       .decp                      : Neutron     Loaded from DLIS: 7-mp-56d-ba_raw-1-6949.dlis         
~A  DEPTH        BS        GR         CALI       DT         RT30       RT60       RT90       RHOB       DRHO       NPHI
# ...
 2558.1001     8.5000    87.3190     8.8736    86.8288     2.5826     2.5211     2.5393     2.5647     0.0019     0.2514
 2558.2001     8.5000    89.5242     8.8868    85.9841     2.5991     2.5378     2.5552     2.5615     0.0026     0.2615
 2558.3001     8.5000    90.6091     8.8635    85.5402     2.6222     2.5608     2.5774     2.5593     0.0031     0.2665
 2558.4001     8.5000    94.0368     8.8146    85.2076     2.6527     2.5911     2.6055     2.5599     0.0029     0.2706
 2558.5001     8.5000    94.1901     8.8051    85.2557     2.6453     2.5843     2.5974     2.5650     0.0026     0.2576
 2558.6001     8.5000    94.3159     8.7782    85.4748     2.6259     2.5658     2.5774     2.5699     0.0014     0.2471
 2558.7001     8.5000    90.7428     8.7997    85.7700     2.5787     2.5199     2.5287     2.5791    -0.0034     0.2503
 2558.8001     8.5000    89.6893     8.8125    86.0470     2.5597     2.5011     2.5087     2.5795    -0.0061     0.2508
 2558.9001     8.5000    90.5384     8.8229    86.3931     2.5454     2.4865     2.4930     2.5798    -0.0084     0.2590
 2559.0001     8.5000    94.1468     8.8644    86.8099     2.5258     2.4654     2.4701     2.5723    -0.0116     0.2523
 2559.1001     8.5000    95.7899     8.9096    87.2813     2.5173     2.4560     2.4599     2.5703    -0.0115     0.2467
 2559.2001     8.5000    95.4204     8.9498    87.6813     2.5109     2.4483     2.4517     2.5665    -0.0105     0.2527
 2559.3001     8.5000    95.5148     8.8126    87.7092     2.5215     2.4550     2.4576     2.5718    -0.0038     0.2630
 2559.4001     8.5000    94.0722     8.7653    87.2760     2.5419     2.4725     2.4749     2.5751    -0.0013     0.2595
 2559.5001     8.5000    93.1759     8.7520    86.6724     2.5689     2.4960     2.4983     2.5821     0.0039     0.2652
 2559.6001     8.5000    90.9590     8.7551    86.4261     2.6282     2.5476     2.5502     2.5861     0.0161     0.2570
 2559.7001     8.5000    91.5368     8.7621    86.6456     2.6519     2.5675     2.5705     2.5806     0.0241     0.2561
 2559.8001     8.5000    92.6138     8.7373    86.8905     2.6616     2.5743     2.5776     2.5596     0.0281     0.2567
 2559.9001     8.5000    93.2467     8.7095    86.9612     2.6515     2.5626     2.5663     2.5302     0.0318     0.2605
 2560.0001     8.5000    95.9000     8.4487    86.7738     2.6034     2.5134     2.5182     2.4820     0.0454     0.2499
 2560.1001     8.5000    96.9299     8.3946    86.3067     2.5916     2.5004     2.5058     2.4823     0.0571     0.2631
 2560.2001     8.5000    98.4943     8.4092    85.4590     2.5961     2.5028     2.5088     2.4925     0.0678     0.2648
 2560.3001     8.5000    96.0022     8.4083    84.4579     2.6496     2.5492     2.5569     2.5276     0.0815     0.2537
 2560.4001     8.5000    96.0376     8.4022    83.5185     2.6857     2.5812     2.5899     2.5433     0.0875     0.2517
 2560.5001     8.5000    94.9527     8.4086    83.1650     2.7063     2.5989     2.6085     2.5605     0.0920     0.2512
 2560.6001     8.5000    95.8056     8.4300    83.4804     2.6502     2.5452     2.5557     2.5683     0.0896     0.2701
 2560.7001     8.5000    95.1571     8.4517    84.9932     2.5853     2.4846     2.4951     2.5449     0.0826     0.2718
 2560.8001     8.5000    94.4063     8.4579    87.0458     2.5160     2.4200     2.4305     2.5125     0.0846     0.2599
 2560.9001     8.5000    92.4723     8.1516    88.4971     2.4161     2.3271     2.3374     2.4618     0.1289     0.2527
 2561.0001     8.5000    92.5313     8.1481    89.1084     2.3998     2.3119     2.3224     2.4646     0.1606     0.2572
 2561.1001     8.5000    93.8638     8.1454    88.8506     2.4037     2.3157     2.3264     2.4767     0.1833     0.2628
 2561.2001     8.5000    94.5006     8.1869    88.2450     2.4369     2.3470     2.3582     2.5075     0.1883     0.2654
 2561.3001     8.5000    93.8992     8.2341    88.0751     2.4435     2.3534     2.3647     2.5261     0.1815     0.2714
 2561.4001     8.5000    93.1445     8.2724    88.1327     2.4316     2.3428     2.3540     2.5414     0.1736     0.2728
 2561.5001     8.5000    93.3882     8.2879    88.4620     2.4018     2.3156     2.3264     2.5611     0.1676     0.2679
 2561.6001     8.5000    91.6547     8.3549    89.2648     2.3169     2.2376     2.2476     2.5794     0.1540     0.2576
 2561.7001     8.5000    90.8961     8.4383    90.4171     2.2789     2.2028     2.2125     2.5845     0.1456     0.2615
 2561.8001     8.5000    89.9291     8.4936    91.3686     2.2503     2.1769     2.1862     2.5833     0.1372     0.2665
 2561.9001     8.5000    92.6767     8.4998    91.7363     2.2270     2.1571     2.1662     2.5675     0.1254     0.2631
 2562.0001     8.5000    93.3607     8.5002    91.6656     2.2345     2.1654     2.1746     2.5500     0.1242     0.2613
 2562.1001     8.5000    93.5179     8.4308    90.9438     2.2503     2.1817     2.1911     2.5368     0.1263     0.2619
 2562.2001     8.5000    89.7247     8.3845    89.9812     2.2890     2.2217     2.2316     2.5222     0.1325     0.2678
 2562.3001     8.5000    88.9385     8.3658    89.2141     2.3216     2.2545     2.2649     2.5207     0.1335     0.2628
 2562.4001     8.5000    87.8104     8.3715    88.8093     2.3747     2.3068     2.3180     2.5134     0.1331     0.2577
 2562.5001     8.5000    85.7506     8.3338    88.7556     2.5259     2.4547     2.4681     2.5156     0.1333     0.2561
 2562.6001     8.5000    85.8646     8.3385    88.7015     2.5935     2.5213     2.5359     2.5289     0.1347     0.2626
 2562.7001     8.5000    87.2090     8.3831    88.6850     2.6298     2.5586     2.5740     2.5488     0.1344     0.2481
 2562.8001     8.5000    93.0423     8.3921    88.8114     2.6035     2.5391     2.5554     2.5620     0.1199     0.2410
 2562.9001     8.5000    96.0376     8.3999    88.9419     2.5723     2.5119     2.5284     2.5590     0.1084     0.2563
 2563.0001     8.5000    98.3921     8.4289    89.0801     2.5459     2.4891     2.5058     2.5528     0.0943     0.2620
 2563.1001     8.5000    98.9188     8.4333    89.1312     2.5237     2.4700     2.4871     2.5574     0.0851     0.2586
 2563.2001     8.5000    94.1586     8.4954    89.0600     2.4746     2.4272     2.4448     2.5842     0.0750     0.2447
 2563.3001     8.5000    90.2829     8.5684    88.9258     2.4511     2.4065     2.4244     2.5980     0.0728     0.2484
 2563.4001     8.5000    87.4330     8.5961    88.5839     2.4372     2.3950     2.4134     2.6041     0.0669     0.2433
 2563.5001     8.5000    88.0501     8.6667    88.1417     2.4622     2.4230     2.4431     2.5978     0.0461     0.2317
 2563.6001     8.5000    90.9668     8.6935    87.7161     2.5047     2.4660     2.4876     2.5984     0.0359     0.2360
 2563.7001     8.5000    93.7027     8.7187    87.5127     2.5611     2.5226     2.5460     2.6008     0.0276     0.2380
 2563.8001     8.5000    93.2074     8.7410    87.5542     2.6584     2.6210     2.6480     2.6106     0.0157     0.2347
 2563.9001     8.5000    92.2404     8.7491    87.7668     2.6773     2.6413     2.6694     2.6102     0.0103     0.2304
 2564.0001     8.5000    91.0572     8.7609    88.0062     2.6797     2.6452     2.6741     2.6096     0.0071     0.2342
 2564.1001     8.5000    91.2302     8.8105    88.3133     2.6729     2.6404     2.6710     2.5983     0.0039     0.2450
 2564.2001     8.5000    91.3874     8.8148    88.4213     2.6690     2.6371     2.6685     2.5900     0.0031     0.2487
 2564.3001     8.5000    92.0871     8.8243    88.1366     2.6560     2.6246     2.6564     2.5785     0.0013     0.2473
 2564.4001     8.5000    91.1358     8.8535    87.8815     2.5847     2.5539     2.5861     2.5665    -0.0025     0.2426
 2564.5001     8.5000    90.8056     8.8518    87.7652     2.5285     2.4979     2.5297     2.5646    -0.0043     0.2406
 2564.6001     8.5000    90.0902     8.8468    87.7221     2.4623     2.4319     2.4632     2.5700    -0.0054     0.2330
 2564.7001     8.5000    89.2058     8.8613    87.8137     2.3922     2.3621     2.3926     2.5770    -0.0062     0.2394
