~VERSION INFORMATION
 VERS.                 2.0:   CWLS LOG ASCII STANDARD - VERSION 2.0
 WRAP.                  NO:   SINGLE LINE PER DEPTH STEP
 CREA.                 22/09/2026 10:10:00
#CREATED USING PANDAS VERSION 3.0.5 BY GIECAR/UFF ON 02/06/2020 16:50:42
~WELL INFORMATION
#MNEM.UNIT       DATA                          DESCRIPTION MNEMONIC
#---------      ---------------------------   --------------------------
 STRT    .M         1868.0001                 : START DEPTH
 STOP    .M         3172.9001                 : STOP DEPTH
 STEP    .M         0.1000                    : STEP VALUE
 NULL    .      -999.0000                     : NULL VALUE
 DATE    .      22/09/2026                    : LAS file Creation Date
 WELL   .      7-MP-56D-BA      : Well Name
 COMP   .      PETROBRAS        : Company
 FLD    .      MASSAPE          : Field
 STATE  .      BAHIA            : State
 API    .      20240028489      : API Number
 UWI    .                       : Unique Well Identifier (UWI)
 LOC    .                       : Location
 TOWN   .      -999.25          : Township
 SCT    .      -999.25          : Section
 RANG   .      -999.25          : Range
 PDAT   .      NM               : Permanent Datum
 EPDAT  .      0.0              : Elevation of Permanent Datum
 LGMEA  .      MR               : Log Measured from
 DRMEA  .      MR               : Drill Measured From
 APDAT  .      100.38           : Elevation Above Permanent Datum
 KB     .      100.68           : KB Elevation
 DF     .      100.38           : DF Elevation
 GL     .      90.98            : GL Elevation
 RWS    .      -999             : Def_Rw
 WST    .      -999             : Def_Rwt
 PROV   .                       : Province
 SRVC   .                       : Contractor
 GDAT   .      WGS 84           : Geodatum
 LONG   .      -38.4243922222985: Longitude
 LATI   .      0                : Latitude
 COORDIN.                       : Grid System
 XCOORD .                       : X or East-West Coordinate
 YCOORD .                       : Y or North-South Coordinate
~CURVE INFORMATION
#MNEM              UNIT       API CODE   Curve Type Comments
#----------  --------------- ----------  ---------- -----------
 DEPTH      .M                         : Depth       Loaded from DLIS: 7-mp-56d-ba_raw-1-6949.dlis
 BS         .in                        : BitSize     Loaded from DLIS: 7-mp-56d-ba_raw-1-6949.dlis
 GR         .gapi                      : GammaRay    Loaded from DLIS: 7-mp-56d-ba_raw-1-6949.dlis
 CALI       .in                        : Caliper     Loaded from DLIS: 7-mp-56d-ba_raw-1-6949.dlis   
 DT         .uspf                      : Sonic       Loaded from DLIS: 7-mp-56d-ba_raw-1-6949.dlis
 RT30       .ohmm                      : DeepRes     Loaded from DLIS: 7-mp-56d-ba_raw-1-6949.dlis
 RT60       .ohmm                      : DeepRes     Loaded from DLIS: 7-mp-56d-ba_raw-1-6949.dlis
 RT90       .ohmm                      : DeepRes     Loaded from DLIS: 7-mp-56d-ba_raw-1-6949.dlis
 RHOB       .g/cc                      : Density     Loaded from DLIS: 7-mp-56d-ba_raw-1-6949.dlis
 DRHO       .g/cc                      : Density     Loaded from DLIS: 7-mp-56d-ba_raw-1-6949.dlis
 NPHI       .decp                      : Neutron     Loaded from DLIS: 7-mp-56d-ba_raw-1-6949.dlis         
~A  DEPTH        BS        GR         CALI       DT         RT30       RT60       RT90       RHOB       DRHO       NPHI
# ...
 2645.2001     8.5000    96.3953     8.5446    80.2938     3.4382     3.3960     3.4147     2.6097     0.0025     0.1971
 2645.3001     8.5000    94.6539     8.5493    80.8305     3.4134     3.3709     3.3890     2.6108     0.0022     0.1933
 2645.4001     8.5000    92.1578     8.5386    81.8660     3.0917     3.0540     3.0674     2.6061    -0.0002     0.1986
 2645.5001     8.5000    93.8795     8.5197    83.5206     2.9110     2.8764     2.8872     2.6027     0.0002     0.2122
 2645.6001     8.5000    95.8725     8.5254    84.5330     2.7853     2.7524     2.7610     2.5996     0.0016     0.2273
 2645.7001     8.5000    99.0171     8.5218    84.6898     2.7286     2.6957     2.7024     2.6024     0.0022     0.2337
 2645.8001     8.5000    96.9181     8.5278    84.5259     2.7836     2.7459     2.7491     2.6129    -0.0026     0.2337
 2645.9001     8.5000    94.2058     8.5279    84.1786     2.8559     2.8142     2.8152     2.6164    -0.0075     0.2307
 2646.0001     8.5000    91.7294     8.5339    84.3859     2.9302     2.8839     2.8824     2.6165    -0.0115     0.2212
 2646.1001     8.5000    89.0643     8.5557    85.4379     2.9921     2.9370     2.9299     2.6077    -0.0124     0.2162
 2646.2001     8.5000    89.0840     8.5652    86.7526     2.9428     2.8856     2.8759     2.6007    -0.0110     0.2105
 2646.3001     8.5000    89.7954     8.5867    88.2647     2.8411     2.7837     2.7720     2.5935    -0.0088     0.1998
 2646.4001     8.5000    94.1115     8.5785    89.4653     2.5813     2.5266     2.5127     2.5867    -0.0072     0.2039
 2646.5001     8.5000    97.3544     8.5746    90.5214     2.4768     2.4230     2.4082     2.5839    -0.0070     0.2185
 2646.6001     8.5000   100.2828     8.5799    90.7566     2.4105     2.3562     2.3404     2.5800    -0.0081     0.2175
 2646.7001     8.5000   104.8858     8.5860    89.4361     2.4430     2.3809     2.3613     2.5683    -0.0078     0.2308
 2646.8001     8.5000   104.4888     8.5619    87.1681     2.5719     2.4999     2.4766     2.5662    -0.0066     0.2382
 2646.9001     8.5000   102.1932     8.5525    83.6753     2.7868     2.6990     2.6699     2.5710    -0.0043     0.2339
 2647.0001     8.5000    95.9393     8.5398    80.6252     3.4171     3.2769     3.2287     2.5955    -0.0016     0.2244
 2647.1001     8.5000    94.4181     8.5578    77.5309     3.7593     3.5854     3.5249     2.6100    -0.0003     0.2184
 2647.2001     8.5000    93.2388     8.5762    75.3921     4.0389     3.8339     3.7618     2.6188     0.0007     0.2075
 2647.3001     8.5000    91.6036     8.5835    75.1396     4.1931     3.9678     3.8875     2.6211     0.0016     0.1951
 2647.4001     8.5000    86.1555     8.5931    75.9471     4.0934     3.8713     3.7891     2.6216     0.0035     0.1826
 2647.5001     8.5000    82.5038     8.5915    77.8228     3.9472     3.7382     3.6589     2.6197     0.0029     0.1889
 2647.6001     8.5000    79.7876     8.5899    79.8835     3.8380     3.6389     3.5612     2.6177     0.0020     0.1964
 2647.7001     8.5000    82.0517     8.5920    81.7451     3.9369     3.7280     3.6416     2.6077    -0.0019     0.2108
 2647.8001     8.5000    85.1256     8.5716    83.0963     4.1812     3.9481     3.8487     2.6029    -0.0039     0.2174
 2647.9001     8.5000    88.2506     8.5584    82.9584     4.5633     4.2899     4.1699     2.5991    -0.0060     0.2227
 2648.0001     8.5000    88.1209     8.5921    81.7233     5.7455     5.3320     5.1398     2.5917    -0.0107     0.2229
 2648.1001     8.5000    86.3756     8.5825    80.3825     6.3427     5.8518     5.6162     2.5879    -0.0130     0.2197
 2648.2001     8.5000    83.8914     8.5776    79.5249     6.6392     6.1125     5.8505     2.5850    -0.0154     0.2171
 2648.3001     8.5000    81.8866     8.6566    78.9177     6.0072     5.5858     5.3561     2.5854    -0.0182     0.2111
 2648.4001     8.5000    82.4330     8.6076    79.2908     5.3771     5.0414     4.8494     2.5902    -0.0189     0.2081
 2648.5001     8.5000    83.5769     8.5682    80.6348     4.7919     4.5267     4.3681     2.5931    -0.0192     0.1991
 2648.6001     8.5000    86.9535     8.5134    82.0939     4.0861     3.8959     3.7744     2.5877    -0.0207     0.2030
 2648.7001     8.5000    89.6028     8.5242    82.9445     3.9900     3.8100     3.6928     2.5798    -0.0214     0.2114
 2648.8001     8.5000    92.6335     8.5090    82.8175     4.0453     3.8617     3.7411     2.5707    -0.0223     0.2140
 2648.9001     8.5000    95.6995     8.4800    81.6781     4.2296     4.0303     3.8994     2.5688    -0.0231     0.2122
 2649.0001     8.5000    97.0714     8.4834    79.6254     4.8253     4.5679     4.4035     2.5727    -0.0247     0.2041
 2649.1001     8.5000    94.9920     8.4819    78.1944     5.1235     4.8331     4.6519     2.5814    -0.0260     0.1913
 2649.2001     8.5000    92.3505     8.4682    77.6095     5.3795     5.0582     4.8633     2.5908    -0.0263     0.1785
 2649.3001     8.5000    85.7270     8.4846    75.9771     5.9775     5.5756     5.3489     2.6095    -0.0248     0.1752
 2649.4001     8.5000    83.1720     8.4970    73.9623     6.4978     6.0201     5.7624     2.6191    -0.0215     0.1760
 2649.5001     8.5000    81.1791     8.5084    71.2553     7.1776     6.5919     6.2909     2.6243    -0.0181     0.1656
 2649.6001     8.5000    74.4063     8.5042    68.3927     8.0704     7.3150     6.9596     2.6281    -0.0115     0.1448
 2649.7001     8.5000    69.5518     8.5041    66.9146     7.7303     7.0215     6.6974     2.6275    -0.0094     0.1361
 2649.8001     8.5000    65.6249     8.5110    67.6892     6.9321     6.3453     6.0815     2.6295    -0.0079     0.1250
 2649.9001     8.5000    68.4551     8.5143    70.2189     5.2225     4.8702     4.7140     2.6343    -0.0047     0.1251
 2650.0001     8.5000    74.9370     8.5126    73.8663     4.6195     4.3380     4.2134     2.6350    -0.0037     0.1318
 2650.1001     8.5000    81.0297     8.5277    78.5207     4.1572     3.9255     3.8227     2.6316    -0.0035     0.1473
 2650.2001     8.5000    87.2679     8.5160    82.6604     3.5046     3.3367     3.2609     2.6217    -0.0059     0.1948
 2650.3001     8.5000    89.9212     8.5291    86.2093     3.3107     3.1604     3.0915     2.6147    -0.0072     0.2013
 2650.4001     8.5000    93.6594     8.5313    89.7343     3.1938     3.0541     2.9888     2.6090    -0.0083     0.2126
 2650.5001     8.5000    97.4487     8.5207    92.1422     3.1184     2.9857     2.9223     2.6023    -0.0089     0.2171
 2650.6001     8.5000    99.1350     8.5264    93.6279     2.8877     2.7752     2.7184     2.5990    -0.0102     0.2459
 2650.7001     8.5000    98.1641     8.5305    94.2804     2.6908     2.5936     2.5430     2.5996    -0.0103     0.2464
 2650.8001     8.5000    99.3237     8.5371    94.2491     2.4871     2.4045     2.3602     2.6024    -0.0097     0.2415
 2650.9001     8.5000   104.1940     8.5288    94.5095     2.2305     2.1648     2.1278     2.5976    -0.0100     0.2630
 2651.0001     8.5000   106.2930     8.5410    94.8506     2.2002     2.1368     2.1003     2.5940    -0.0102     0.2668
 2651.1001     8.5000   105.8056     8.5318    94.0307     2.2206     2.1565     2.1191     2.5922    -0.0102     0.2651
 2651.2001     8.5000   102.3622     8.5249    92.7178     2.3350     2.2654     2.2238     2.5999    -0.0052     0.2720
 2651.3001     8.5000   100.3929     8.5300    91.5198     2.3983     2.3254     2.2817     2.5994    -0.0030     0.2742
 2651.4001     8.5000   101.7333     8.5100    90.3764     2.4605     2.3844     2.3387     2.5947    -0.0000     0.2668
 2651.5001     8.5000   105.8292     8.4307    89.0818     2.6143     2.5296     2.4797     2.5774     0.0024     0.2653
 2651.6001     8.5000   105.9393     8.4333    87.6944     2.7244     2.6331     2.5802     2.5796     0.0047     0.2659
 2651.7001     8.5000   101.7097     8.4396    86.2159     2.8574     2.7577     2.7013     2.5854     0.0043     0.2495
 2651.8001     8.5000    94.8190     8.4823    85.0289     3.1319     3.0139     2.9513     2.6081     0.0023     0.2365
