~VERSION INFORMATION
 VERS.                 2.0:   CWLS LOG ASCII STANDARD - VERSION 2.0
 WRAP.                  NO:   SINGLE LINE PER DEPTH STEP
 CREA.                 22/09/2026 10:10:00
#CREATED USING PANDAS VERSION 3.0.5 BY GIECAR/UFF ON 02/06/2020 16:50:42
~WELL INFORMATION
#MNEM.UNIT       DATA                          DESCRIPTION MNEMONIC
#---------      ---------------------------   --------------------------
 STRT    .M         1868.0001                 : START DEPTH
 STOP    .M         3172.9001                 : STOP DEPTH
 STEP    .M         0.1000                    : STEP VALUE
 NULL    .      -999.0000                     : NULL VALUE
 DATE    .      22/09/2026                    : LAS file Creation Date
 WELL   .      7-MP-56D-BA      : Well Name
 COMP   .      PETROBRAS        : Company
 FLD    .      MASSAPE          : Field
 STATE  .      BAHIA            : State
 API    .      20240028489      : API Number
 UWI    .                       : Unique Well Identifier (UWI)
 LOC    .                       : Location
 TOWN   .      -999.25          : Township
 SCT    .      -999.25          : Section
 RANG   .      -999.25          : Range
 PDAT   .      NM               : Permanent Datum
 EPDAT  .      0.0              : Elevation of Permanent Datum
 LGMEA  .      MR               : Log Measured from
 DRMEA  .      MR               : Drill Measured From
 APDAT  .      100.38           : Elevation Above Permanent Datum
 KB     .      100.68           : KB Elevation
 DF     .      100.38           : DF Elevation
 GL     .      90.98            : GL Elevation
 RWS    .      -999             : Def_Rw
 WST    .      -999             : Def_Rwt
 PROV   .                       : Province
 SRVC   .                       : Contractor
 GDAT   .      WGS 84           : Geodatum
 LONG   .      -38.4243922222985: Longitude
 LATI   .      0                : Latitude
 COORDIN.                       : Grid System
 XCOORD .                       : X or East-West Coordinate
 YCOORD .                       : Y or North-South Coordinate
~CURVE INFORMATION
#MNEM              UNIT       API CODE   Curve Type Comments
#----------  --------------- ----------  ---------- -----------
 DEPTH      .M                         : Depth       Loaded from DLIS: 7-mp-56d-ba_raw-1-6949.dlis
 BS         .in                        : BitSize     Loaded from DLIS: 7-mp-56d-ba_raw-1-6949.dlis
 GR         .gapi                      : GammaRay    Loaded from DLIS: 7-mp-56d-ba_raw-1-6949.dlis
 CALI       .in                        : Caliper     Loaded from DLIS: 7-mp-56d-ba_raw-1-6949.dlis   
 DT         .uspf                      : Sonic       Loaded from DLIS: 7-mp-56d-ba_raw-1-6949.dlis
 RT30       .ohmm                      : DeepRes     Loaded from DLIS: 7-mp-56d-ba_raw-1-6949.dlis
 RT60       .ohmm                      : DeepRes     Loaded from DLIS: 7-mp-56d-ba_raw-1-6949.dlis
 RT90       .ohmm                      : DeepRes     Loaded from DLIS: 7-mp-56d-ba_raw-1-6949.dlis
 RHOB       .g/cc                      : Density     Loaded from DLIS: 7-mp-56d-ba_raw-1-6949.dlis
 DRHO       .g/cc                      : Density     Loaded from DLIS: 7-mp-56d-ba_raw-1-6949.dlis
 NPHI       .decp                      : Neutron     Loaded from DLIS: 7-mp-56d-ba_raw-1-6949.dlis         
~A  DEPTH        BS        GR         CALI       DT         RT30       RT60       RT90       RHOB       DRHO       NPHI
# ...
 2129.3001     8.5000   100.3772     9.4325    86.4314     2.3336     2.2983     2.3412     2.5283    -0.0262     0.2249
 2129.4001     8.5000   101.0533     9.4355    86.4727     2.3003     2.2646     2.3083     2.5286    -0.0266     0.2302
 2129.5001     8.5000   101.5761     9.4683    86.7489     2.2705     2.2346     2.2789     2.5310    -0.0241     0.2442
 2129.6001     8.5000   102.5077     9.4967    86.5622     2.2736     2.2357     2.2834     2.5473    -0.0146     0.2322
 2129.7001     8.5000   101.1004     9.4934    85.9858     2.2946     2.2551     2.3053     2.5578    -0.0095     0.2323
 2129.8001     8.5000    99.0918     9.4614    85.4215     2.3098     2.2690     2.3214     2.5645    -0.0045     0.2383
 2129.9001     8.5000    97.6924     9.4173    85.5742     2.3090     2.2676     2.3213     2.5668     0.0006     0.2358
 2130.0001     8.5000   100.0981     9.3378    86.1832     2.2482     2.2077     2.2610     2.5609     0.0122     0.2348
 2130.1001     8.5000   102.9086     9.3102    86.7305     2.2011     2.1616     2.2139     2.5585     0.0181     0.2384
 2130.2001     8.5000   105.4361     9.2680    87.2830     2.1614     2.1227     2.1742     2.5534     0.0228     0.2446
 2130.3001     8.5000   107.8811     9.2514    87.9765     2.1277     2.0893     2.1410     2.5490     0.0328     0.2638
 2130.4001     8.5000   107.1264     9.2691    88.9396     2.1269     2.0882     2.1407     2.5404     0.0328     0.2588
 2130.5001     8.5000   105.6366     9.2837    89.7941     2.1338     2.0945     2.1482     2.5337     0.0322     0.2500
 2130.6001     8.5000   102.0596     9.4468    90.2965     2.1770     2.1357     2.1935     2.5153     0.0325     0.2653
 2130.7001     8.5000   102.6335     9.4714    90.5325     2.2081     2.1654     2.2259     2.5117     0.0435     0.2618
 2130.8001     8.5000   104.6853     9.6113    90.2746     2.2330     2.1892     2.2520     2.5082     0.0573     0.2655
 2130.9001     8.5000   106.7883     9.4241    89.6306     2.2443     2.1999     2.2655     2.5087     0.0807     0.2711
 2131.0001     8.5000   104.8151     9.1417    89.0193     2.2373     2.1931     2.2594     2.5114     0.0813     0.2825
 2131.1001     8.5000   102.3229     9.0595    88.5040     2.2281     2.1842     2.2512     2.5161     0.0752     0.2716
 2131.2001     8.5000   100.8803     9.0193    87.9129     2.2034     2.1603     2.2281     2.5199     0.0551     0.2524
 2131.3001     8.5000   100.6602     8.9777    87.4218     2.1877     2.1451     2.2132     2.5173     0.0455     0.2519
 2131.4001     8.5000   100.5737     8.9629    87.1191     2.1691     2.1272     2.1954     2.5168     0.0403     0.2545
 2131.5001     8.5000   100.5855     8.9688    87.3697     2.1441     2.1030     2.1709     2.5201     0.0378     0.2677
 2131.6001     8.5000   105.0588     8.9663    88.1787     2.0750     2.0364     2.1026     2.5331     0.0372     0.2677
 2131.7001     8.5000   107.8221     8.9909    89.1692     2.0409     2.0036     2.0689     2.5368     0.0368     0.2593
 2131.8001     8.5000   109.3905     8.9960    89.8383     2.0101     1.9740     2.0387     2.5375     0.0363     0.2664
 2131.9001     8.5000   106.9731     8.9913    89.9361     1.9651     1.9312     1.9955     2.5325     0.0371     0.2651
 2132.0001     8.5000   103.8638     8.9897    89.6008     1.9587     1.9255     1.9906     2.5297     0.0374     0.2551
 2132.1001     8.5000   101.0218     8.9998    89.0854     1.9670     1.9341     2.0009     2.5269     0.0363     0.2599
 2132.2001     8.5000    95.4086     9.0393    88.6424     2.0157     1.9826     2.0553     2.5275     0.0274     0.2577
 2132.3001     8.5000    95.3575     9.0403    88.4871     2.0402     2.0070     2.0826     2.5327     0.0220     0.2623
 2132.4001     8.5000    96.4464     9.0398    88.7963     2.0536     2.0209     2.0986     2.5386     0.0175     0.2586
 2132.5001     8.5000    99.5242     9.0529    89.5532     2.0351     2.0048     2.0836     2.5408     0.0147     0.2537
 2132.6001     8.5000   101.2184     9.0492    90.6004     2.0085     1.9798     2.0581     2.5358     0.0148     0.2606
 2132.7001     8.5000   102.4605     9.0510    91.5950     1.9789     1.9519     2.0294     2.5312     0.0163     0.2661
 2132.8001     8.5000   105.8803     9.0791    92.2010     1.9240     1.9001     1.9760     2.5433     0.0200     0.2741
 2132.9001     8.5000   105.7545     9.0826    92.6199     1.9014     1.8790     1.9543     2.5544     0.0210     0.2742
 2133.0001     8.5000   104.6932     9.0794    92.6999     1.8866     1.8654     1.9406     2.5652     0.0203     0.2680
 2133.1001     8.5000   103.2860     9.0633    92.1076     1.8835     1.8633     1.9391     2.5672     0.0185     0.2632
 2133.2001     8.5000   100.9825     9.0477    90.9929     1.9177     1.8989     1.9785     2.5570     0.0164     0.2595
 2133.3001     8.5000   101.4935     9.0272    89.6221     1.9572     1.9387     2.0217     2.5471     0.0149     0.2457
 2133.4001     8.5000   102.1067     9.0095    88.5102     2.0102     1.9919     2.0791     2.5409     0.0136     0.2337
 2133.5001     8.5000   100.0548     8.9519    87.6842     2.1072     2.0897     2.1843     2.5393     0.0096     0.2311
 2133.6001     8.5000    98.5100     8.9571    87.3196     2.1231     2.1065     2.2023     2.5435     0.0103     0.2307
 2133.7001     8.5000    98.3253     8.9761    87.9532     2.1142     2.0989     2.1941     2.5434     0.0105     0.2330
 2133.8001     8.5000   102.0753     8.9509    88.7282     2.0567     2.0437     2.1347     2.5403     0.0139     0.2602
 2133.9001     8.5000   103.4275     8.9384    89.8368     2.0260     2.0140     2.1025     2.5335     0.0145     0.2565
 2134.0001     8.5000   104.8583     8.9463    90.7181     2.0038     1.9925     2.0789     2.5280     0.0169     0.2556
 2134.1001     8.5000   105.3614     8.9293    91.0304     1.9992     1.9882     2.0732     2.5105     0.0165     0.2606
 2134.2001     8.5000   106.1240     8.9302    90.8115     2.0196     2.0081     2.0938     2.5064     0.0156     0.2578
 2134.3001     8.5000   105.7938     8.9258    89.8766     2.0571     2.0447     2.1321     2.5067     0.0126     0.2644
 2134.4001     8.5000   106.3913     8.9325    88.7112     2.1127     2.0989     2.1888     2.5167     0.0115     0.2512
 2134.5001     8.5000   104.3001     8.9425    87.5786     2.2572     2.2383     2.3341     2.5398     0.0128     0.2426
 2134.6001     8.5000   102.9794     8.9359    86.5815     2.3183     2.2960     2.3935     2.5515     0.0145     0.2408
 2134.7001     8.5000   103.8913     8.9234    86.3071     2.3531     2.3275     2.4254     2.5568     0.0156     0.2329
 2134.8001     8.5000   110.5855     8.9415    86.6556     2.3399     2.3080     2.4030     2.5604     0.0170     0.2325
 2134.9001     8.5000   113.0304     8.9513    87.7424     2.2949     2.2603     2.3522     2.5577     0.0176     0.2446
 2135.0001     8.5000   112.4762     8.9553    89.2635     2.2277     2.1913     2.2788     2.5530     0.0168     0.2541
 2135.1001     8.5000   108.1641     8.9483    90.7370     2.0605     2.0235     2.0991     2.5396     0.0177     0.2632
 2135.2001     8.5000   107.2089     8.9511    92.2048     1.9758     1.9394     2.0083     2.5309     0.0187     0.2692
 2135.3001     8.5000   106.2301     8.9331    93.2495     1.8989     1.8635     1.9266     2.5250     0.0208     0.2748
 2135.4001     8.5000   102.2758     8.9139    93.8975     1.7933     1.7599     1.8159     2.5157     0.0237     0.2892
 2135.5001     8.5000   101.9770     8.9207    94.3522     1.7681     1.7354     1.7899     2.5136     0.0249     0.2930
 2135.6001     8.5000   101.7647     8.9270    94.6753     1.7571     1.7252     1.7791     2.5099     0.0272     0.2881
 2135.7001     8.5000   105.8842     8.9364    94.7001     1.7629     1.7330     1.7877     2.5070     0.0328     0.2762
 2135.8001     8.5000   106.6272     8.9422    94.5157     1.7791     1.7504     1.8065     2.5012     0.0349     0.2741
 2135.9001     8.5000   107.0595     8.9292    94.1143     1.8059     1.7787     1.8368     2.4928     0.0338     0.2785
