~VERSION INFORMATION
 VERS.                 2.0:   CWLS LOG ASCII STANDARD - VERSION 2.0
 WRAP.                  NO:   SINGLE LINE PER DEPTH STEP
 CREA.                 22/09/2026 10:10:00
#CREATED USING PANDAS VERSION 3.0.5 BY GIECAR/UFF ON 02/06/2020 16:50:42
~WELL INFORMATION
#MNEM.UNIT       DATA                          DESCRIPTION MNEMONIC
#---------      ---------------------------   --------------------------
 STRT    .M         1868.0001                 : START DEPTH
 STOP    .M         3172.9001                 : STOP DEPTH
 STEP    .M         0.1000                    : STEP VALUE
 NULL    .      -999.0000                     : NULL VALUE
 DATE    .      22/09/2026                    : LAS file Creation Date
 WELL   .      7-MP-56D-BA      : Well Name
 COMP   .      PETROBRAS        : Company
 FLD    .      MASSAPE          : Field
 STATE  .      BAHIA            : State
 API    .      20240028489      : API Number
 UWI    .                       : Unique Well Identifier (UWI)
 LOC    .                       : Location
 TOWN   .      -999.25          : Township
 SCT    .      -999.25          : Section
 RANG   .      -999.25          : Range
 PDAT   .      NM               : Permanent Datum
 EPDAT  .      0.0              : Elevation of Permanent Datum
 LGMEA  .      MR               : Log Measured from
 DRMEA  .      MR               : Drill Measured From
 APDAT  .      100.38           : Elevation Above Permanent Datum
 KB     .      100.68           : KB Elevation
 DF     .      100.38           : DF Elevation
 GL     .      90.98            : GL Elevation
 RWS    .      -999             : Def_Rw
 WST    .      -999             : Def_Rwt
 PROV   .                       : Province
 SRVC   .                       : Contractor
 GDAT   .      WGS 84           : Geodatum
 LONG   .      -38.4243922222985: Longitude
 LATI   .      0                : Latitude
 COORDIN.                       : Grid System
 XCOORD .                       : X or East-West Coordinate
 YCOORD .                       : Y or North-South Coordinate
~CURVE INFORMATION
#MNEM              UNIT       API CODE   Curve Type Comments
#----------  --------------- ----------  ---------- -----------
 DEPTH      .M                         : Depth       Loaded from DLIS: 7-mp-56d-ba_raw-1-6949.dlis
 BS         .in                        : BitSize     Loaded from DLIS: 7-mp-56d-ba_raw-1-6949.dlis
 GR         .gapi                      : GammaRay    Loaded from DLIS: 7-mp-56d-ba_raw-1-6949.dlis
 CALI       .in                        : Caliper     Loaded from DLIS: 7-mp-56d-ba_raw-1-6949.dlis   
 DT         .uspf                      : Sonic       Loaded from DLIS: 7-mp-56d-ba_raw-1-6949.dlis
 RT30       .ohmm                      : DeepRes     Loaded from DLIS: 7-mp-56d-ba_raw-1-6949.dlis
 RT60       .ohmm                      : DeepRes     Loaded from DLIS: 7-mp-56d-ba_raw-1-6949.dlis
 RT90       .ohmm                      : DeepRes     Loaded from DLIS: 7-mp-56d-ba_raw-1-6949.dlis
 RHOB       .g/cc                      : Density     Loaded from DLIS: 7-mp-56d-ba_raw-1-6949.dlis
 DRHO       .g/cc                      : Density     Loaded from DLIS: 7-mp-56d-ba_raw-1-6949.dlis
 NPHI       .decp                      : Neutron     Loaded from DLIS: 7-mp-56d-ba_raw-1-6949.dlis         
~A  DEPTH        BS        GR         CALI       DT         RT30       RT60       RT90       RHOB       DRHO       NPHI
# ...
 2303.5001     8.5000   100.1688     8.6538    88.6718     2.3019     2.2628     2.3027     2.5528     0.0776     0.2229
 2303.6001     8.5000   102.6374     8.6722    87.3013     2.3153     2.2766     2.3159     2.5529     0.0698     0.2246
 2303.7001     8.5000   102.7907     8.7052    85.6826     2.3575     2.3182     2.3579     2.5532     0.0624     0.2226
 2303.8001     8.5000    96.7058     8.7099    84.5816     2.5227     2.4803     2.5231     2.5742     0.0520     0.2088
 2303.9001     8.5000    92.7632     8.7070    84.3582     2.6037     2.5601     2.6042     2.5960     0.0506     0.2064
 2304.0001     8.5000    90.3379     8.7047    83.8631     2.6477     2.6044     2.6484     2.6091     0.0453     0.2079
 2304.1001     8.5000    93.8795     8.7558    83.3017     2.6747     2.6340     2.6756     2.6014     0.0317     0.2103
 2304.2001     8.5000    96.2184     8.7698    82.4144     2.7267     2.6863     2.7276     2.5866     0.0250     0.2108
 2304.3001     8.5000    95.6916     8.7722    81.2249     2.8337     2.7918     2.8343     2.5812     0.0232     0.2073
 2304.4001     8.5000    93.6555     8.7825    79.8213     2.9881     2.9432     2.9881     2.5838     0.0228     0.2000
 2304.5001     8.5000    90.8803     8.7973    78.4845     3.3404     3.2873     3.3371     2.5982     0.0257     0.1866
 2304.6001     8.5000    90.7860     8.8107    77.7511     3.4798     3.4228     3.4733     2.6022     0.0287     0.1809
 2304.7001     8.5000    89.7954     8.8032    78.3666     3.5349     3.4758     3.5238     2.6033     0.0329     0.1753
 2304.8001     8.5000    86.8159     8.7966    80.0446     3.2617     3.2087     3.2422     2.5965     0.0404     0.1950
 2304.9001     8.5000    86.4267     8.7834    82.8889     3.0019     2.9551     2.9803     2.5823     0.0399     0.1992
 2305.0001     8.5000    88.3961     8.7704    85.8220     2.7423     2.7015     2.7200     2.5646     0.0378     0.2076
 2305.1001     8.5000    95.8764     8.7251    87.8502     2.3563     2.3234     2.3335     2.5302     0.0346     0.2357
 2305.2001     8.5000   100.9786     8.7118    88.8074     2.2513     2.2201     2.2280     2.5263     0.0355     0.2392
 2305.3001     8.5000   104.1154     8.7290    88.5814     2.2090     2.1780     2.1844     2.5243     0.0361     0.2378
 2305.4001     8.5000   103.4393     8.7215    88.0597     2.2729     2.2385     2.2435     2.5410     0.0360     0.2282
 2305.5001     8.5000   100.9275     8.7344    87.5345     2.3325     2.2958     2.3005     2.5511     0.0355     0.2293
 2305.6001     8.5000    98.9699     8.7459    87.3062     2.3814     2.3427     2.3474     2.5647     0.0367     0.2260
 2305.7001     8.5000    98.3685     8.7704    87.3316     2.4346     2.3937     2.3992     2.5755     0.0388     0.2230
 2305.8001     8.5000    97.8064     8.7687    87.2406     2.4624     2.4205     2.4269     2.5749     0.0399     0.2275
 2305.9001     8.5000    97.3937     8.7110    86.5284     2.5088     2.4652     2.4731     2.5696     0.0400     0.2277
 2306.0001     8.5000    95.7624     8.6890    84.6363     2.5815     2.5353     2.5452     2.5641     0.0393     0.2290
 2306.1001     8.5000    94.1311     8.5923    81.6758     2.8317     2.7760     2.7932     2.5582     0.0419     0.2118
 2306.2001     8.5000    92.5313     8.5498    78.1341     3.0040     2.9412     2.9640     2.5719     0.0430     0.2078
 2306.3001     8.5000    91.6901     8.5665    77.0655     3.1609     3.0911     3.1205     2.5931     0.0435     0.1951
 2306.4001     8.5000    89.8151     8.5860    77.6963     3.1961     3.1230     3.1623     2.6246     0.0349     0.1804
 2306.5001     8.5000    90.1571     8.6021    78.9609     3.0599     2.9917     3.0321     2.6162     0.0275     0.1843
 2306.6001     8.5000    91.6350     8.5847    79.6348     2.9162     2.8531     2.8938     2.6004     0.0211     0.1883
 2306.7001     8.5000    95.7113     8.6003    79.1583     2.9243     2.8584     2.9075     2.5800     0.0114     0.1864
 2306.8001     8.5000    95.8764     8.6048    77.5940     3.1398     3.0625     3.1236     2.5899     0.0095     0.1802
 2306.9001     8.5000    93.5140     8.5974    75.8745     3.4825     3.3858     3.4660     2.6043     0.0054     0.1678
 2307.0001     8.5000    87.6256     8.5982    75.5318     4.0384     3.9030     4.0234     2.6208    -0.0027     0.1591
 2307.1001     8.5000    87.7003     8.6046    76.6429     3.8677     3.7394     3.8551     2.6116    -0.0082     0.1612
 2307.2001     8.5000    89.6500     8.7011    80.1433     3.4325     3.3274     3.4226     2.5979    -0.0089     0.1633
 2307.3001     8.5000    97.6256     8.7596    83.8508     2.5559     2.4931     2.5499     2.5737    -0.0028     0.2010
 2307.4001     8.5000   101.0847     8.7632    87.1237     2.2817     2.2300     2.2766     2.5719     0.0060     0.2166
 2307.5001     8.5000   102.9519     8.7808    89.3624     2.1088     2.0633     2.1042     2.5709     0.0115     0.2238
 2307.6001     8.5000   104.5281     8.7870    90.0302     2.0105     1.9682     2.0062     2.5710     0.0161     0.2260
 2307.7001     8.5000   104.2254     8.7495    90.0548     1.9565     1.9150     1.9523     2.5642     0.0120     0.2353
 2307.8001     8.5000   102.5548     8.7436    89.8184     1.9670     1.9246     1.9628     2.5633     0.0091     0.2379
 2307.9001     8.5000    98.8795     8.7410    89.6587     1.9791     1.9357     1.9749     2.5661     0.0065     0.2354
 2308.0001     8.5000    90.3340     8.7258    89.6943     1.9634     1.9198     1.9594     2.5728     0.0022     0.2241
 2308.1001     8.5000    88.4590     8.7159    89.9225     1.9294     1.8869     1.9257     2.5712    -0.0000     0.2216
 2308.2001     8.5000    89.5399     8.7473    90.3928     1.8866     1.8455     1.8830     2.5663    -0.0026     0.2248
 2308.3001     8.5000    97.1854     8.7867    91.2934     1.8108     1.7721     1.8077     2.5510    -0.0042     0.2343
 2308.4001     8.5000    99.7089     8.7759    92.4909     1.7761     1.7385     1.7732     2.5467    -0.0042     0.2377
 2308.5001     8.5000   100.6484     8.7803    93.3098     1.7369     1.7005     1.7342     2.5414    -0.0043     0.2409
 2308.6001     8.5000    99.8937     8.7355    93.8728     1.6549     1.6215     1.6531     2.5334    -0.0050     0.2613
 2308.7001     8.5000    99.0761     8.7355    93.8601     1.6308     1.5981     1.6294     2.5279    -0.0060     0.2614
 2308.8001     8.5000    97.5234     8.7337    93.3041     1.6318     1.5992     1.6311     2.5271    -0.0061     0.2526
 2308.9001     8.5000    95.4715     8.7423    92.3215     1.7140     1.6786     1.7149     2.5369    -0.0048     0.2424
 2309.0001     8.5000    94.8622     8.7189    91.2531     1.7741     1.7367     1.7763     2.5443    -0.0032     0.2503
 2309.1001     8.5000    94.1154     8.7238    90.2406     1.8297     1.7908     1.8334     2.5472    -0.0019     0.2569
 2309.2001     8.5000    93.8717     8.7069    89.6996     1.8770     1.8371     1.8825     2.5458    -0.0005     0.2508
 2309.3001     8.5000    94.6264     8.7341    89.4680     1.9660     1.9249     1.9755     2.5470     0.0035     0.2380
 2309.4001     8.5000    96.2105     8.7501    88.8531     2.0262     1.9843     2.0381     2.5517     0.0064     0.2394
 2309.5001     8.5000    96.8670     8.7450    87.6794     2.1080     2.0646     2.1227     2.5582     0.0089     0.2336
 2309.6001     8.5000    94.5517     8.7252    86.0537     2.3638     2.3144     2.3861     2.5638     0.0137     0.2237
 2309.7001     8.5000    91.9338     8.7080    84.0352     2.5427     2.4885     2.5702     2.5652     0.0130     0.2177
 2309.8001     8.5000    89.2176     8.7132    82.1111     2.7384     2.6786     2.7713     2.5665     0.0125     0.2022
 2309.9001     8.5000    87.7553     8.7186    81.1200     3.0425     2.9754     3.0816     2.5754     0.0039     0.1758
 2310.0001     8.5000    89.2373     8.7176    80.9791     3.0874     3.0209     3.1267     2.5850     0.0021     0.1724
 2310.1001     8.5000    90.8214     8.7424    82.1845     3.0422     2.9794     3.0798     2.5926    -0.0017     0.1765
