~VERSION INFORMATION
 VERS.                 2.0:   CWLS LOG ASCII STANDARD - VERSION 2.0
 WRAP.                  NO:   SINGLE LINE PER DEPTH STEP
 CREA.                 22/09/2026 10:10:00
#CREATED USING PANDAS VERSION 3.0.5 BY GIECAR/UFF ON 02/06/2020 16:50:42
~WELL INFORMATION
#MNEM.UNIT       DATA                          DESCRIPTION MNEMONIC
#---------      ---------------------------   --------------------------
 STRT    .M         1868.0001                 : START DEPTH
 STOP    .M         3172.9001                 : STOP DEPTH
 STEP    .M         0.1000                    : STEP VALUE
 NULL    .      -999.0000                     : NULL VALUE
 DATE    .      22/09/2026                    : LAS file Creation Date
 WELL   .      7-MP-56D-BA      : Well Name
 COMP   .      PETROBRAS        : Company
 FLD    .      MASSAPE          : Field
 STATE  .      BAHIA            : State
 API    .      20240028489      : API Number
 UWI    .                       : Unique Well Identifier (UWI)
 LOC    .                       : Location
 TOWN   .      -999.25          : Township
 SCT    .      -999.25          : Section
 RANG   .      -999.25          : Range
 PDAT   .      NM               : Permanent Datum
 EPDAT  .      0.0              : Elevation of Permanent Datum
 LGMEA  .      MR               : Log Measured from
 DRMEA  .      MR               : Drill Measured From
 APDAT  .      100.38           : Elevation Above Permanent Datum
 KB     .      100.68           : KB Elevation
 DF     .      100.38           : DF Elevation
 GL     .      90.98            : GL Elevation
 RWS    .      -999             : Def_Rw
 WST    .      -999             : Def_Rwt
 PROV   .                       : Province
 SRVC   .                       : Contractor
 GDAT   .      WGS 84           : Geodatum
 LONG   .      -38.4243922222985: Longitude
 LATI   .      0                : Latitude
 COORDIN.                       : Grid System
 XCOORD .                       : X or East-West Coordinate
 YCOORD .                       : Y or North-South Coordinate
~CURVE INFORMATION
#MNEM              UNIT       API CODE   Curve Type Comments
#----------  --------------- ----------  ---------- -----------
 DEPTH      .M                         : Depth       Loaded from DLIS: 7-mp-56d-ba_raw-1-6949.dlis
 BS         .in                        : BitSize     Loaded from DLIS: 7-mp-56d-ba_raw-1-6949.dlis
 GR         .gapi                      : GammaRay    Loaded from DLIS: 7-mp-56d-ba_raw-1-6949.dlis
 CALI       .in                        : Caliper     Loaded from DLIS: 7-mp-56d-ba_raw-1-6949.dlis   
 DT         .uspf                      : Sonic       Loaded from DLIS: 7-mp-56d-ba_raw-1-6949.dlis
 RT30       .ohmm                      : DeepRes     Loaded from DLIS: 7-mp-56d-ba_raw-1-6949.dlis
 RT60       .ohmm                      : DeepRes     Loaded from DLIS: 7-mp-56d-ba_raw-1-6949.dlis
 RT90       .ohmm                      : DeepRes     Loaded from DLIS: 7-mp-56d-ba_raw-1-6949.dlis
 RHOB       .g/cc                      : Density     Loaded from DLIS: 7-mp-56d-ba_raw-1-6949.dlis
 DRHO       .g/cc                      : Density     Loaded from DLIS: 7-mp-56d-ba_raw-1-6949.dlis
 NPHI       .decp                      : Neutron     Loaded from DLIS: 7-mp-56d-ba_raw-1-6949.dlis         
~A  DEPTH        BS        GR         CALI       DT         RT30       RT60       RT90       RHOB       DRHO       NPHI
# ...
 2906.5001     8.5000    55.7585     8.3929    73.0064    45.5684    46.3689    45.3597     2.4543     0.0140     0.1070
 2906.6001     8.5000    54.1115     8.3942    74.2759    45.2866    46.0003    44.9814     2.4529     0.0173     0.1057
 2906.7001     8.5000    51.9732     8.4219    75.5456    39.9153    40.4158    39.5346     2.4447     0.0130     0.0986
 2906.8001     8.5000    52.2837     8.4008    77.1003    36.3785    36.7775    36.0026     2.4306     0.0098     0.0980
 2906.9001     8.5000    54.4024     8.4004    78.6177    33.1624    33.4783    32.8036     2.4182     0.0093     0.1021
 2907.0001     8.5000    59.5282     8.4080    79.1527    28.5933    28.8039    28.2747     2.3986     0.0139     0.1221
 2907.1001     8.5000    61.4582     8.4271    78.8338    27.2723    27.4551    26.9694     2.4014     0.0191     0.1342
 2907.2001     8.5000    63.1288     8.4063    77.6948    26.5205    26.6874    26.2286     2.4060     0.0222     0.1385
 2907.3001     8.5000    64.2412     8.3859    76.1859    26.4840    26.6434    26.1999     2.4184     0.0200     0.1403
 2907.4001     8.5000    63.9071     8.3775    74.8081    27.0906    27.2546    26.8039     2.4251     0.0141     0.1409
 2907.5001     8.5000    64.1665     8.3827    73.8878    28.0188    28.1912    27.7262     2.4327     0.0082     0.1368
 2907.6001     8.5000    65.2200     8.3916    73.8372    29.1559    29.3389    28.8553     2.4446     0.0048     0.1318
 2907.7001     8.5000    67.2876     8.3885    74.6914    31.5882    31.7948    31.2714     2.4555     0.0066     0.1273
 2907.8001     8.5000    65.8568     8.3930    75.6678    32.7927    33.0106    32.4688     2.4513     0.0079     0.1272
 2907.9001     8.5000    64.1312     8.3977    76.6726    34.0411    34.2696    33.7101     2.4408     0.0103     0.1294
 2908.0001     8.5000    61.2695     8.3849    76.8993    36.9153    37.1622    36.5668     2.4190     0.0117     0.1298
 2908.1001     8.5000    61.2577     8.3866    76.5925    38.5423    38.7961    38.1830     2.4127     0.0152     0.1280
 2908.2001     8.5000    60.1178     8.3689    75.5366    40.0858    40.3435    39.7164     2.4090     0.0162     0.1241
 2908.3001     8.5000    55.9590     8.3568    74.5379    41.4968    41.7468    41.1237     2.4143     0.0172     0.1257
 2908.4001     8.5000    52.6689     8.3538    74.1023    40.9637    41.2017    40.6012     2.4202     0.0156     0.1261
 2908.5001     8.5000    50.5502     8.3691    74.3973    39.8677    40.0909    39.5213     2.4260     0.0142     0.1188
 2908.6001     8.5000    50.4677     8.3864    75.0996    37.7665    37.9605    37.4500     2.4287     0.0131     0.1238
 2908.7001     8.5000    52.8104     8.3813    76.1925    37.3238    37.5056    37.0158     2.4225     0.0115     0.1281
 2908.8001     8.5000    55.6760     8.3638    77.3445    37.2899    37.4608    36.9861     2.4162     0.0122     0.1303
 2908.9001     8.5000    59.7129     8.3551    77.7811    37.4314    37.5838    37.1350     2.3979     0.0147     0.1416
 2909.0001     8.5000    59.2334     8.3537    77.7759    37.1286    37.2724    36.8409     2.3915     0.0192     0.1378
 2909.1001     8.5000    58.5298     8.3374    77.2629    36.5433    36.6793    36.2687     2.3861     0.0202     0.1331
 2909.2001     8.5000    58.6438     8.3405    76.8090    35.8437    35.9731    35.5851     2.3869     0.0198     0.1306
 2909.3001     8.5000    65.0942     8.3721    75.6564    34.4386    34.5604    34.2193     2.4041     0.0109     0.1319
 2909.4001     8.5000    70.0549     8.3861    74.0159    33.6044    33.7246    33.4085     2.4175     0.0068     0.1333
 2909.5001     8.5000    73.8285     8.4048    73.1541    32.6231    32.7429    32.4531     2.4329     0.0056     0.1324
 2909.6001     8.5000    76.7412     8.4037    72.9635    30.8374    30.9621    30.7217     2.4600     0.0021     0.1378
 2909.7001     8.5000    77.2483     8.4132    73.4264    30.5387    30.6704    30.4494     2.4700     0.0013     0.1355
 2909.8001     8.5000    77.5431     8.4114    74.6830    30.8663    31.0092    30.8032     2.4714    -0.0030     0.1345
 2909.9001     8.5000    74.0014     8.4061    75.8895    33.2070    33.3870    33.2033     2.4506    -0.0045     0.1377
 2910.0001     8.5000    70.9472     8.4040    76.5938    34.8717    35.0776    34.9047     2.4324    -0.0050     0.1383
 2910.1001     8.5000    69.0368     8.3866    76.2774    36.5635    36.7990    36.6390     2.4145    -0.0048     0.1405
 2910.2001     8.5000    66.2813     8.3878    75.5439    39.2415    39.5424    39.4171     2.4004    -0.0056     0.1338
 2910.3001     8.5000    63.1917     8.3967    74.5671    40.0303    40.3640    40.2599     2.3994    -0.0065     0.1320
 2910.4001     8.5000    59.0879     8.4060    74.1798    40.4402    40.8046    40.7227     2.4000    -0.0048     0.1291
 2910.5001     8.5000    53.4079     8.3997    74.4501    40.1504    40.5633    40.5244     2.3898    -0.0027     0.1269
 2910.6001     8.5000    53.8993     8.3997    74.8263    39.3306    39.7577    39.7379     2.3866    -0.0004     0.1257
 2910.7001     8.5000    54.3120     8.3977    74.7319    37.9548    38.3869    38.3836     2.3863     0.0018     0.1239
 2910.8001     8.5000    55.7468     8.4005    74.6862    36.0297    36.4570    36.4671     2.3924     0.0061     0.1235
 2910.9001     8.5000    58.4905     8.3767    74.6536    31.1292    31.5251    31.5526     2.4134     0.0155     0.1209
 2911.0001     8.5000    60.1178     8.3911    73.8863    28.6658    29.0465    29.0794     2.4240     0.0179     0.1195
 2911.1001     8.5000    61.5526     8.3964    73.3813    26.5365    26.9068    26.9434     2.4320     0.0171     0.1203
 2911.2001     8.5000    64.6815     8.4005    73.4635    23.8509    24.2183    24.2585     2.4444     0.0093     0.1217
 2911.3001     8.5000    67.2129     8.3983    73.8041    23.3980    23.7732    23.8141     2.4535     0.0054     0.1210
 2911.4001     8.5000    69.5636     8.4011    73.9601    23.5652    23.9545    23.9954     2.4654     0.0045     0.1226
 2911.5001     8.5000    69.4889     8.3936    74.0280    25.8363    26.2730    26.3113     2.4779     0.0061     0.1300
 2911.6001     8.5000    66.3167     8.4096    74.2797    27.9120    28.3812    28.4159     2.4711     0.0077     0.1317
 2911.7001     8.5000    62.8812     8.3917    74.9575    30.4363    30.9401    30.9688     2.4579     0.0076     0.1308
 2911.8001     8.5000    58.1131     8.3736    75.3282    35.2173    35.7684    35.7760     2.4243     0.0015     0.1233
 2911.9001     8.5000    56.9456     8.3811    75.2708    36.3272    36.8714    36.8655     2.4141    -0.0026     0.1212
 2912.0001     8.5000    55.7310     8.3847    74.8928    36.1126    36.6230    36.6039     2.4057    -0.0060     0.1214
 2912.1001     8.5000    56.5604     8.4053    74.6041    32.8116    33.1971    33.1550     2.4121    -0.0039     0.1115
 2912.2001     8.5000    57.7318     8.3934    74.2510    30.7682    31.0841    31.0351     2.4254    -0.0016     0.1094
 2912.3001     8.5000    60.0588     8.3966    73.6767    29.0415    29.2964    29.2422     2.4473    -0.0007     0.1110
 2912.4001     8.5000    63.3489     8.3950    73.1632    27.7611    27.9649    27.9061     2.4705    -0.0002     0.1121
 2912.5001     8.5000    73.3411     8.3862    72.2999    25.9822    26.1049    26.0397     2.5021     0.0033     0.1149
 2912.6001     8.5000    76.3953     8.3988    71.0469    25.1575    25.2477    25.1810     2.5064     0.0071     0.1201
 2912.7001     8.5000    77.5785     8.3836    70.7636    24.3608    24.4234    24.3563     2.5063     0.0095     0.1237
 2912.8001     8.5000    74.2648     8.3778    70.8794    23.5898    23.6103    23.5440     2.5140     0.0102     0.1258
 2912.9001     8.5000    74.1194     8.3864    71.2301    24.0289    24.0325    23.9652     2.5184     0.0102     0.1229
 2913.0001     8.5000    74.7444     8.3948    71.3376    25.1891    25.1766    25.1065     2.5184     0.0107     0.1248
 2913.1001     8.5000    75.9197     8.3851    71.5625    29.5081    29.4609    29.3821     2.4888     0.0100     0.1296
