~VERSION INFORMATION
 VERS.                 2.0:   CWLS LOG ASCII STANDARD - VERSION 2.0
 WRAP.                  NO:   SINGLE LINE PER DEPTH STEP
 CREA.                 22/09/2026 10:10:00
#CREATED USING PANDAS VERSION 3.0.5 BY GIECAR/UFF ON 02/06/2020 16:50:42
~WELL INFORMATION
#MNEM.UNIT       DATA                          DESCRIPTION MNEMONIC
#---------      ---------------------------   --------------------------
 STRT    .M         1868.0001                 : START DEPTH
 STOP    .M         3172.9001                 : STOP DEPTH
 STEP    .M         0.1000                    : STEP VALUE
 NULL    .      -999.0000                     : NULL VALUE
 DATE    .      22/09/2026                    : LAS file Creation Date
 WELL   .      7-MP-56D-BA      : Well Name
 COMP   .      PETROBRAS        : Company
 FLD    .      MASSAPE          : Field
 STATE  .      BAHIA            : State
 API    .      20240028489      : API Number
 UWI    .                       : Unique Well Identifier (UWI)
 LOC    .                       : Location
 TOWN   .      -999.25          : Township
 SCT    .      -999.25          : Section
 RANG   .      -999.25          : Range
 PDAT   .      NM               : Permanent Datum
 EPDAT  .      0.0              : Elevation of Permanent Datum
 LGMEA  .      MR               : Log Measured from
 DRMEA  .      MR               : Drill Measured From
 APDAT  .      100.38           : Elevation Above Permanent Datum
 KB     .      100.68           : KB Elevation
 DF     .      100.38           : DF Elevation
 GL     .      90.98            : GL Elevation
 RWS    .      -999             : Def_Rw
 WST    .      -999             : Def_Rwt
 PROV   .                       : Province
 SRVC   .                       : Contractor
 GDAT   .      WGS 84           : Geodatum
 LONG   .      -38.4243922222985: Longitude
 LATI   .      0                : Latitude
 COORDIN.                       : Grid System
 XCOORD .                       : X or East-West Coordinate
 YCOORD .                       : Y or North-South Coordinate
~CURVE INFORMATION
#MNEM              UNIT       API CODE   Curve Type Comments
#----------  --------------- ----------  ---------- -----------
 DEPTH      .M                         : Depth       Loaded from DLIS: 7-mp-56d-ba_raw-1-6949.dlis
 BS         .in                        : BitSize     Loaded from DLIS: 7-mp-56d-ba_raw-1-6949.dlis
 GR         .gapi                      : GammaRay    Loaded from DLIS: 7-mp-56d-ba_raw-1-6949.dlis
 CALI       .in                        : Caliper     Loaded from DLIS: 7-mp-56d-ba_raw-1-6949.dlis   
 DT         .uspf                      : Sonic       Loaded from DLIS: 7-mp-56d-ba_raw-1-6949.dlis
 RT30       .ohmm                      : DeepRes     Loaded from DLIS: 7-mp-56d-ba_raw-1-6949.dlis
 RT60       .ohmm                      : DeepRes     Loaded from DLIS: 7-mp-56d-ba_raw-1-6949.dlis
 RT90       .ohmm                      : DeepRes     Loaded from DLIS: 7-mp-56d-ba_raw-1-6949.dlis
 RHOB       .g/cc                      : Density     Loaded from DLIS: 7-mp-56d-ba_raw-1-6949.dlis
 DRHO       .g/cc                      : Density     Loaded from DLIS: 7-mp-56d-ba_raw-1-6949.dlis
 NPHI       .decp                      : Neutron     Loaded from DLIS: 7-mp-56d-ba_raw-1-6949.dlis         
~A  DEPTH        BS        GR         CALI       DT         RT30       RT60       RT90       RHOB       DRHO       NPHI
# ...
 2819.4001     8.5000    77.7436     8.6982    74.1350    12.0255    12.0252    11.8412     2.5414     0.0032     0.1494
 2819.5001     8.5000    76.8670     8.6730    74.0612    12.4011    12.4158    12.2237     2.5395     0.0028     0.1532
 2819.6001     8.5000    71.8985     8.6403    74.0873    13.1217    13.1637    12.9552     2.5188     0.0033     0.1519
 2819.7001     8.5000    70.0195     8.6416    74.3047    13.2932    13.3458    13.1321     2.5094     0.0056     0.1480
 2819.8001     8.5000    69.2255     8.6488    74.3690    13.2908    13.3501    13.1350     2.5031     0.0075     0.1424
 2819.9001     8.5000    68.7852     8.6748    73.8308    12.9417    13.0050    12.7931     2.4953     0.0016     0.1457
 2820.0001     8.5000    70.3772     8.6892    73.1478    12.7044    12.7660    12.5564     2.4939    -0.0070     0.1449
 2820.1001     8.5000    73.3804     8.6912    72.3303    12.4835    12.5413    12.3334     2.4968    -0.0161     0.1412
 2820.2001     8.5000    77.4094     8.6617    71.6944    12.2926    12.3449    12.1379     2.5092    -0.0228     0.1374
 2820.3001     8.5000    79.3473     8.6314    70.7413    12.0230    12.0596    11.8525     2.5468    -0.0231     0.1412
 2820.4001     8.5000    75.2672     8.6139    70.6133    11.9234    11.9503    11.7426     2.5602    -0.0181     0.1413
 2820.5001     8.5000    71.0769     8.6260    70.7458    11.8354    11.8518    11.6435     2.5612    -0.0137     0.1395
 2820.6001     8.5000    69.6500     8.6750    71.2661    11.7632    11.7570    11.5453     2.5458    -0.0075     0.1355
 2820.7001     8.5000    72.1029     8.7499    71.9477    11.8665    11.8487    11.6314     2.5372    -0.0059     0.1351
 2820.8001     8.5000    74.0093     8.7464    72.3812    12.0917    12.0610    11.8354     2.5313    -0.0041     0.1391
 2820.9001     8.5000    72.0124     8.7245    72.6030    12.7336    12.6736    12.4263     2.5095    -0.0023     0.1364
 2821.0001     8.5000    69.4535     8.7263    72.7278    13.1453    13.0686    12.8080     2.4935    -0.0034     0.1319
 2821.1001     8.5000    66.5879     8.7068    72.3876    13.5880    13.4939    13.2161     2.4759    -0.0044     0.1319
 2821.2001     8.5000    63.8678     8.7409    71.7034    13.9693    13.8441    13.5445     2.4641    -0.0033     0.1280
 2821.3001     8.5000    63.2900     8.7219    70.6561    14.0303    13.8900    13.5878     2.4691    -0.0015     0.1261
 2821.4001     8.5000    62.4763     8.7233    69.7726    14.0857    13.9330    13.6285     2.4841     0.0014     0.1242
 2821.5001     8.5000    63.8796     8.6744    69.6762    14.0307    13.8643    13.5619     2.5140     0.0035     0.1220
 2821.6001     8.5000    67.4527     8.6308    70.2617    13.8095    13.6410    13.3484     2.5296     0.0040     0.1240
 2821.7001     8.5000    72.0753     8.6536    70.9047    13.4595    13.2913    13.0126     2.5435     0.0036     0.1256
 2821.8001     8.5000    75.4165     8.6327    71.1524    13.0764    12.9103    12.6433     2.5607     0.0045     0.1321
 2821.9001     8.5000    79.5714     8.6128    70.9557    12.5691    12.4056    12.1481     2.5825     0.0073     0.1407
 2822.0001     8.5000    81.8434     8.5895    70.4494    12.5141    12.3494    12.0918     2.5830     0.0072     0.1366
 2822.1001     8.5000    84.7090     8.5638    70.0181    12.5800    12.4122    12.1508     2.5747     0.0063     0.1334
 2822.2001     8.5000    83.7695     8.5389    70.1556    12.8892    12.7112    12.4356     2.5509     0.0035     0.1351
 2822.3001     8.5000    80.3497     8.5410    70.6897    13.0154    12.8318    12.5488     2.5401     0.0037     0.1330
 2822.4001     8.5000    75.9708     8.5424    71.3077    13.0806    12.8918    12.6022     2.5275     0.0030     0.1328
 2822.5001     8.5000    70.7153     8.5209    71.8740    13.1018    12.9027    12.6025     2.5044     0.0008     0.1313
 2822.6001     8.5000    69.9095     8.5275    72.5227    13.1219    12.9168    12.6110     2.4927    -0.0006     0.1295
 2822.7001     8.5000    69.5714     8.5132    73.2405    13.1688    12.9565    12.6441     2.4889     0.0005     0.1336
 2822.8001     8.5000    68.6005     8.5030    73.9833    13.2657    13.0364    12.7124     2.4887     0.0048     0.1311
 2822.9001     8.5000    66.7766     8.4998    74.4319    13.2170    12.9815    12.6572     2.4936     0.0083     0.1256
 2823.0001     8.5000    65.5581     8.4885    74.3103    13.0716    12.8331    12.5141     2.4982     0.0080     0.1260
 2823.1001     8.5000    64.8937     8.4806    73.6950    12.6464    12.4075    12.1084     2.5135     0.0045     0.1287
 2823.2001     8.5000    68.1288     8.4891    72.8887    12.4547    12.2151    11.9264     2.5232    -0.0004     0.1295
 2823.3001     8.5000    72.7829     8.4876    72.0681    12.3922    12.1477    11.8648     2.5304    -0.0025     0.1362
 2823.4001     8.5000    77.6964     8.5002    71.3964    12.5314    12.2761    11.9911     2.5385    -0.0039     0.1350
 2823.5001     8.5000    82.9204     8.5003    70.6411    13.4348    13.1399    12.8271     2.5413    -0.0083     0.1283
 2823.6001     8.5000    81.6587     8.5011    70.2529    14.1805    13.8567    13.5190     2.5353    -0.0133     0.1268
 2823.7001     8.5000    78.7184     8.5028    70.8551    15.0462    14.6888    14.3222     2.5257    -0.0167     0.1228
 2823.8001     8.5000    70.6249     8.4943    71.9007    16.7108    16.2874    15.8718     2.4968    -0.0221     0.1186
 2823.9001     8.5000    67.9165     8.4756    72.8472    17.4361    16.9856    16.5537     2.4873    -0.0181     0.1199
 2824.0001     8.5000    66.1634     8.4671    74.0032    18.1928    17.7163    17.2687     2.4742    -0.0167     0.1178
 2824.1001     8.5000    64.5793     8.4487    75.1044    20.1835    19.6424    19.1460     2.4554    -0.0082     0.1156
 2824.2001     8.5000    61.9692     8.4309    75.3674    21.4539    20.8742    20.3419     2.4447    -0.0064     0.1143
 2824.3001     8.5000    58.6045     8.4055    74.5587    22.8017    22.1865    21.6143     2.4405    -0.0015     0.1119
 2824.4001     8.5000    54.1902     8.3770    73.9589    24.8953    24.2565    23.6255     2.4337     0.0026     0.1110
 2824.5001     8.5000    54.0447     8.3882    73.8585    25.1738    24.5601    23.9296     2.4358     0.0038     0.1118
 2824.6001     8.5000    54.9370     8.4132    74.0130    24.7267    24.1625    23.5603     2.4372     0.0042     0.1111
 2824.7001     8.5000    56.4857     8.4563    74.3144    21.7648    21.3328    20.8658     2.4485     0.0077     0.1143
 2824.8001     8.5000    57.2680     8.4814    74.5833    19.6828    19.3191    18.9286     2.4508     0.0097     0.1143
 2824.9001     8.5000    59.0211     8.4714    74.5448    17.6426    17.3392    17.0107     2.4563     0.0113     0.1137
 2825.0001     8.5000    60.9787     8.4799    74.1863    15.8953    15.6399    15.3554     2.4652     0.0124     0.1147
 2825.1001     8.5000    68.8206     8.4928    73.2164    13.5488    13.3539    13.1173     2.5040     0.0149     0.1242
 2825.2001     8.5000    73.0580     8.4773    72.0186    12.9268    12.7478    12.5223     2.5333     0.0166     0.1298
 2825.3001     8.5000    77.2915     8.4832    71.0441    12.6255    12.4548    12.2343     2.5596     0.0191     0.1262
 2825.4001     8.5000    81.3442     8.4926    70.7964    12.8091    12.6381    12.4077     2.5828     0.0212     0.1278
 2825.5001     8.5000    79.9605     8.4871    71.3386    13.2208    13.0428    12.7956     2.5729     0.0217     0.1291
 2825.6001     8.5000    76.9495     8.4809    72.3619    13.7767    13.5886    13.3158     2.5529     0.0211     0.1263
 2825.7001     8.5000    68.3175     8.4877    73.2355    14.8605    14.6477    14.3163     2.5028     0.0216     0.1202
 2825.8001     8.5000    64.7483     8.4849    74.0515    15.1100    14.8886    14.5394     2.4795     0.0197     0.1177
 2825.9001     8.5000    62.0007     8.4477    74.3624    15.0841    14.8611    14.5070     2.4636     0.0181     0.1174
 2826.0001     8.5000    62.0950     8.4470    74.4167    14.4976    14.2870    13.9502     2.4509     0.0176     0.1144
