~VERSION INFORMATION
 VERS.                 2.0:   CWLS LOG ASCII STANDARD - VERSION 2.0
 WRAP.                  NO:   SINGLE LINE PER DEPTH STEP
 CREA.                 22/09/2026 10:10:00
#CREATED USING PANDAS VERSION 3.0.5 BY GIECAR/UFF ON 02/06/2020 16:50:42
~WELL INFORMATION
#MNEM.UNIT       DATA                          DESCRIPTION MNEMONIC
#---------      ---------------------------   --------------------------
 STRT    .M         1868.0001                 : START DEPTH
 STOP    .M         3172.9001                 : STOP DEPTH
 STEP    .M         0.1000                    : STEP VALUE
 NULL    .      -999.0000                     : NULL VALUE
 DATE    .      22/09/2026                    : LAS file Creation Date
 WELL   .      7-MP-56D-BA      : Well Name
 COMP   .      PETROBRAS        : Company
 FLD    .      MASSAPE          : Field
 STATE  .      BAHIA            : State
 API    .      20240028489      : API Number
 UWI    .                       : Unique Well Identifier (UWI)
 LOC    .                       : Location
 TOWN   .      -999.25          : Township
 SCT    .      -999.25          : Section
 RANG   .      -999.25          : Range
 PDAT   .      NM               : Permanent Datum
 EPDAT  .      0.0              : Elevation of Permanent Datum
 LGMEA  .      MR               : Log Measured from
 DRMEA  .      MR               : Drill Measured From
 APDAT  .      100.38           : Elevation Above Permanent Datum
 KB     .      100.68           : KB Elevation
 DF     .      100.38           : DF Elevation
 GL     .      90.98            : GL Elevation
 RWS    .      -999             : Def_Rw
 WST    .      -999             : Def_Rwt
 PROV   .                       : Province
 SRVC   .                       : Contractor
 GDAT   .      WGS 84           : Geodatum
 LONG   .      -38.4243922222985: Longitude
 LATI   .      0                : Latitude
 COORDIN.                       : Grid System
 XCOORD .                       : X or East-West Coordinate
 YCOORD .                       : Y or North-South Coordinate
~CURVE INFORMATION
#MNEM              UNIT       API CODE   Curve Type Comments
#----------  --------------- ----------  ---------- -----------
 DEPTH      .M                         : Depth       Loaded from DLIS: 7-mp-56d-ba_raw-1-6949.dlis
 BS         .in                        : BitSize     Loaded from DLIS: 7-mp-56d-ba_raw-1-6949.dlis
 GR         .gapi                      : GammaRay    Loaded from DLIS: 7-mp-56d-ba_raw-1-6949.dlis
 CALI       .in                        : Caliper     Loaded from DLIS: 7-mp-56d-ba_raw-1-6949.dlis   
 DT         .uspf                      : Sonic       Loaded from DLIS: 7-mp-56d-ba_raw-1-6949.dlis
 RT30       .ohmm                      : DeepRes     Loaded from DLIS: 7-mp-56d-ba_raw-1-6949.dlis
 RT60       .ohmm                      : DeepRes     Loaded from DLIS: 7-mp-56d-ba_raw-1-6949.dlis
 RT90       .ohmm                      : DeepRes     Loaded from DLIS: 7-mp-56d-ba_raw-1-6949.dlis
 RHOB       .g/cc                      : Density     Loaded from DLIS: 7-mp-56d-ba_raw-1-6949.dlis
 DRHO       .g/cc                      : Density     Loaded from DLIS: 7-mp-56d-ba_raw-1-6949.dlis
 NPHI       .decp                      : Neutron     Loaded from DLIS: 7-mp-56d-ba_raw-1-6949.dlis         
~A  DEPTH        BS        GR         CALI       DT         RT30       RT60       RT90       RHOB       DRHO       NPHI
# ...
 3167.8001     8.5000    85.2845     8.1164    74.4634    13.6153    13.3674    13.1759     2.4144     0.0066     0.1362
 3167.9001     8.5000    85.2113     8.1077    73.9340    13.9846    13.7245    13.5182     2.4152     0.0084     0.1363
 3168.0001     8.5000    81.4646     8.0920    73.5231    14.1420    13.8730    13.6515     2.4123     0.0120     0.1377
 3168.1001     8.5000    80.5825     8.0864    73.0282    13.8085    13.5473    13.3303     2.4104     0.0154     0.1368
 3168.2001     8.5000    80.1192     8.0713    72.8535    13.2459    12.9992    12.7936     2.4102     0.0196     0.1371
 3168.3001     8.5000    82.5670     8.0543    73.2368    11.9682    11.7517    11.5738     2.4118     0.0277     0.1369
 3168.4001     8.5000    82.9291     8.0468    74.4115    11.4642    11.2568    11.0890     2.4129     0.0305     0.1379
 3168.5001     8.5000    83.7100     8.0401    75.7081    11.1080    10.9042    10.7426     2.4150     0.0319     0.1384
 3168.6001     8.5000    84.5922     8.0229    76.3472    10.8181    10.6060    10.4465     2.4216     0.0342     0.1382
 3168.7001     8.5000    85.0714     8.0179    76.2804    10.8703    10.6465    10.4833     2.4245     0.0348     0.1363
 3168.8001     8.5000    84.3327     8.0214    75.4226    11.0683    10.8267    10.6560     2.4252     0.0353     0.1355
 3168.9001     8.5000    82.5976     8.0535    74.1968    11.9709    11.6679    11.4682     2.4236     0.0352     0.1328
 3169.0001     8.5000    83.1063     8.0750    73.2285    12.6714    12.3225    12.1007     2.4231     0.0353     0.1348
 3169.1001     8.5000    85.4353     8.0870    72.4863    13.4891    13.0849    12.8372     2.4234     0.0351     0.1366
 3169.2001     8.5000    87.8747     8.0822    72.0169    15.2075    14.6788    14.3775     2.4271     0.0345     0.1368
 3169.3001     8.5000    88.7431     8.0791    71.5778    15.9820    15.3941    15.0702     2.4307     0.0342     0.1366
 3169.4001     8.5000    86.8395     8.0806    71.2528    16.6563    16.0164    15.6748     2.4349     0.0347     0.1352
 3169.5001     8.5000    84.7741     8.0791    71.1120    17.2297    16.5463    16.1921     2.4377     0.0354     0.1367
 3169.6001     8.5000    82.8351     8.0496    71.0142    18.0990    17.3564    16.9898     2.4364     0.0358     0.1361
 3169.7001     8.5000    83.7448     8.0335    71.1353    18.3751    17.6190    17.2526     2.4354     0.0361     0.1401
 3169.8001     8.5000    84.7952     7.9973    71.7815    18.5348    17.7765    17.4142     2.4336     0.0370     0.1399
 3169.9001     8.5000    86.6171     7.9217    72.6594    18.5007    17.7701    17.4254     2.4315     0.0415     0.1363
 3170.0001     8.5000    86.3391     7.8984    73.7651    18.2718    17.5719    17.2410     2.4270     0.0433     0.1352
 3170.1001     8.5000    85.6299     7.8614    74.4460    17.8418    17.1865    16.8742     2.4215     0.0445     0.1346
 3170.2001     8.5000    83.8981     7.6639    74.3378    16.2827    15.7564    15.4969     2.4134     0.0506     0.1379
 3170.3001     8.5000    83.4298     7.6120    73.6558    15.2549    14.8013    14.5721     2.4088     0.0556     0.1422
 3170.4001     8.5000    83.3540     7.5612    72.7689    14.2174    13.8307    13.6298     2.4043     0.0620     0.1461
 3170.5001     8.5000    84.8129     7.5272    72.1437    12.5530    12.2638    12.1039     2.3878     0.0746     0.1424
 3170.6001     8.5000    85.6956     7.5206    71.6455    12.0228    11.7638    11.6157     2.3815     0.0810     0.1429
 3170.7001     8.5000    85.8371     7.5091    70.9881    11.6579    11.4207    11.2802     2.3769     0.0866     0.1447
 3170.8001     8.5000    86.1740     7.4971    70.5986    11.1836    10.9784    10.8471     2.3736     0.0912     0.1450
 3170.9001     8.5000    87.1772     7.4788    70.3732    11.0167    10.8248    10.6967     2.3710     0.0900     0.1462
 3171.0001     8.5000    87.0298     7.4730    70.3381    10.8989    10.7187    10.5928     2.3674     0.0879     0.1453
 3171.1001     8.5000    85.5499     7.4636    70.5377    10.8321    10.6624    10.5377     2.3643     0.0873     0.1466
 3171.2001     8.5000    81.9026     7.4534    70.8504    10.7988    10.6472    10.5231     2.3585     0.0887     0.1484
 3171.3001     8.5000    81.3206     7.4467    71.2732    10.8017    10.6587    10.5346     2.3589     0.0903     0.1466
 3171.4001     8.5000    81.6365     7.4419    71.5917    10.8171    10.6826    10.5582     2.3586     0.0916     0.1466
 3171.5001     8.5000    85.1969     7.4373    71.8692    10.9658    10.8471    10.7190     2.3647     0.0938     0.1444
 3171.6001     8.5000    86.7374     7.4305    72.1282    11.1503    11.0383    10.9053     2.3668     0.0958     0.1427
 3171.7001     8.5000    87.4252     7.4239    72.4306    11.4237    11.3170    11.1771     2.3704     0.0978     0.1439
 3171.8001     8.5000    88.1457     7.4081    72.7032    12.0851    11.9859    11.8290     2.3709     0.1008     0.1446
 3171.9001     8.5000    88.8729     7.3713    72.9776    12.3107    12.2146    12.0506     2.3688     0.1004     0.1461
 3172.0001     8.5000    89.3766     7.3186    73.3601    12.3829    12.2897    12.1208     2.3655     0.0996     0.1485
 3172.1001     8.5000    88.1889     7.2479    73.0263    12.2216    12.1301    11.9553     2.3583     0.1004     0.1517
 3172.2001     8.5000    87.9916     7.2152    72.4054    12.1539    12.0592    11.8803     2.3551     0.1025     0.1496
 3172.3001     8.5000    87.9977     7.2057    70.3772    12.1656    12.0640    11.8789     2.3506     0.1048     0.1473
 3172.4001     8.5000    88.1915     7.2069    67.5416    12.3218    12.1950    11.9927     2.3400     0.1065     0.1469
 3172.5001     8.5000    87.5305     7.2086    66.0265    12.3590    12.2146    12.0041     2.3356     0.1072     0.1468
 3172.6001     8.5000    88.2076     7.2082    65.5312    12.3572    12.1929    11.9750     2.3341     0.1086     0.1477
 3172.7001     8.5000    89.5980     7.2113    65.9171    12.3821    12.1954    11.9688     2.3339     0.1109     0.1504
 3172.8001     8.5000    91.4339     7.2124    66.3742    12.7422    12.4908    12.2348     2.3376     0.1160     0.1495
 3172.9001     8.5000  -999.0000     7.2118    66.8357    13.0314    12.7365    12.4612     2.3386     0.1178     0.1494
