~VERSION INFORMATION
 VERS.                 2.0:   CWLS LOG ASCII STANDARD - VERSION 2.0
 WRAP.                  NO:   SINGLE LINE PER DEPTH STEP
 CREA.                 22/09/2026 10:10:00
#CREATED USING PANDAS VERSION 3.0.5 BY GIECAR/UFF ON 02/06/2020 16:50:42
~WELL INFORMATION
#MNEM.UNIT       DATA                          DESCRIPTION MNEMONIC
#---------      ---------------------------   --------------------------
 STRT    .M         1868.0001                 : START DEPTH
 STOP    .M         3172.9001                 : STOP DEPTH
 STEP    .M         0.1000                    : STEP VALUE
 NULL    .      -999.0000                     : NULL VALUE
 DATE    .      22/09/2026                    : LAS file Creation Date
 WELL   .      7-MP-56D-BA      : Well Name
 COMP   .      PETROBRAS        : Company
 FLD    .      MASSAPE          : Field
 STATE  .      BAHIA            : State
 API    .      20240028489      : API Number
 UWI    .                       : Unique Well Identifier (UWI)
 LOC    .                       : Location
 TOWN   .      -999.25          : Township
 SCT    .      -999.25          : Section
 RANG   .      -999.25          : Range
 PDAT   .      NM               : Permanent Datum
 EPDAT  .      0.0              : Elevation of Permanent Datum
 LGMEA  .      MR               : Log Measured from
 DRMEA  .      MR               : Drill Measured From
 APDAT  .      100.38           : Elevation Above Permanent Datum
 KB     .      100.68           : KB Elevation
 DF     .      100.38           : DF Elevation
 GL     .      90.98            : GL Elevation
 RWS    .      -999             : Def_Rw
 WST    .      -999             : Def_Rwt
 PROV   .                       : Province
 SRVC   .                       : Contractor
 GDAT   .      WGS 84           : Geodatum
 LONG   .      -38.4243922222985: Longitude
 LATI   .      0                : Latitude
 COORDIN.                       : Grid System
 XCOORD .                       : X or East-West Coordinate
 YCOORD .                       : Y or North-South Coordinate
~CURVE INFORMATION
#MNEM              UNIT       API CODE   Curve Type Comments
#----------  --------------- ----------  ---------- -----------
 DEPTH      .M                         : Depth       Loaded from DLIS: 7-mp-56d-ba_raw-1-6949.dlis
 BS         .in                        : BitSize     Loaded from DLIS: 7-mp-56d-ba_raw-1-6949.dlis
 GR         .gapi                      : GammaRay    Loaded from DLIS: 7-mp-56d-ba_raw-1-6949.dlis
 CALI       .in                        : Caliper     Loaded from DLIS: 7-mp-56d-ba_raw-1-6949.dlis   
 DT         .uspf                      : Sonic       Loaded from DLIS: 7-mp-56d-ba_raw-1-6949.dlis
 RT30       .ohmm                      : DeepRes     Loaded from DLIS: 7-mp-56d-ba_raw-1-6949.dlis
 RT60       .ohmm                      : DeepRes     Loaded from DLIS: 7-mp-56d-ba_raw-1-6949.dlis
 RT90       .ohmm                      : DeepRes     Loaded from DLIS: 7-mp-56d-ba_raw-1-6949.dlis
 RHOB       .g/cc                      : Density     Loaded from DLIS: 7-mp-56d-ba_raw-1-6949.dlis
 DRHO       .g/cc                      : Density     Loaded from DLIS: 7-mp-56d-ba_raw-1-6949.dlis
 NPHI       .decp                      : Neutron     Loaded from DLIS: 7-mp-56d-ba_raw-1-6949.dlis         
~A  DEPTH        BS        GR         CALI       DT         RT30       RT60       RT90       RHOB       DRHO       NPHI
# ...
 2216.4001     8.5000   108.5257     8.8379    90.2181     2.0822     2.0122     2.0163     2.5226     0.0385     0.2546
 2216.5001     8.5000   108.6122     8.8168    88.5715     2.1731     2.0974     2.1014     2.5304     0.0329     0.2395
 2216.6001     8.5000   106.0965     8.8247    86.5080     2.2754     2.1932     2.1972     2.5414     0.0299     0.2366
 2216.7001     8.5000   101.6979     8.8452    84.8172     2.4699     2.3756     2.3794     2.5543     0.0253     0.2405
 2216.8001     8.5000   100.8371     8.8305    83.7612     2.5466     2.4483     2.4520     2.5584     0.0264     0.2324
 2216.9001     8.5000   101.6075     8.8373    83.2070     2.6153     2.5139     2.5176     2.5583     0.0262     0.2289
 2217.0001     8.5000   101.8198     8.8681    83.5067     2.6892     2.5848     2.5885     2.5582     0.0267     0.2263
 2217.1001     8.5000    99.8387     8.8864    84.3485     2.8594     2.7494     2.7535     2.5615     0.0260     0.2324
 2217.2001     8.5000    97.1421     8.8930    85.7722     2.9332     2.8224     2.8267     2.5660     0.0258     0.2341
 2217.3001     8.5000    95.8449     8.8791    87.5578     2.9848     2.8757     2.8802     2.5707     0.0261     0.2322
 2217.4001     8.5000    95.4126     8.9172    88.3731     3.0599     2.9583     2.9632     2.5665     0.0255     0.2238
 2217.5001     8.5000    96.6508     8.9313    87.4113     3.1433     3.0436     3.0490     2.5578     0.0247     0.2244
 2217.6001     8.5000    97.1146     8.9102    85.0183     3.3108     3.2088     3.2150     2.5432     0.0229     0.2266
 2217.7001     8.5000    95.6602     8.8986    82.0029     4.0438     3.9175     3.9276     2.5302     0.0210     0.2147
 2217.8001     8.5000    91.1123     8.8241    79.7583     4.6207     4.4717     4.4856     2.5424     0.0214     0.2041
 2217.9001     8.5000    84.0525     8.7460    79.5446     5.1770     5.0083     5.0266     2.5708     0.0209     0.2030
 2218.0001     8.5000    74.1272     8.7855    82.7028     5.0970     4.9618     4.9803     2.6243     0.0153     0.1826
 2218.1001     8.5000    75.2278     8.8069    87.5012     4.4697     4.3733     4.3874     2.6227     0.0096     0.1759
 2218.2001     8.5000    81.0572     8.8168    92.3650     3.8562     3.7890     3.7995     2.5993     0.0069     0.1845
 2218.3001     8.5000    94.9841     8.8532    95.5842     3.1874     3.1461     3.1536     2.5325     0.0125     0.2274
 2218.4001     8.5000    98.9149     8.8488    97.5200     3.0926     3.0553     3.0629     2.5098     0.0179     0.2498
 2218.5001     8.5000    99.0525     8.8882    99.2331     3.0824     3.0465     3.0550     2.4965     0.0220     0.2619
 2218.6001     8.5000    97.7789     8.8872   100.0443     3.1118     3.0760     3.0858     2.4895     0.0225     0.2644
 2218.7001     8.5000    98.3882     8.9005   100.3210     3.2029     3.1661     3.1799     2.4742     0.0198     0.2799
 2218.8001     8.5000   100.5148     8.8879   100.1907     3.2830     3.2446     3.2614     2.4668     0.0187     0.2830
 2218.9001     8.5000   102.6099     8.8729    99.5811     3.4402     3.3982     3.4195     2.4564     0.0177     0.2766
 2219.0001     8.5000   100.6209     8.9171    98.5713     4.0837     4.0236     4.0630     2.4453     0.0151     0.2614
 2219.1001     8.5000    98.3214     8.9270    97.1659     4.4842     4.4105     4.4642     2.4445     0.0131     0.2537
 2219.2001     8.5000    96.6075     8.9458    95.0105     4.7980     4.7124     4.7809     2.4497     0.0103     0.2426
 2219.3001     8.5000    97.9872     8.9527    93.0804     4.9346     4.8342     4.9202     2.4628    -0.0018     0.2202
 2219.4001     8.5000    99.1547     8.9868    91.7212     4.8104     4.7061     4.7957     2.4728    -0.0070     0.2134
 2219.5001     8.5000   100.3143     8.9943    91.0026     4.6124     4.5080     4.5964     2.4829    -0.0105     0.2131
 2219.6001     8.5000   101.1869     9.0255    90.7534     4.0031     3.9101     3.9850     2.5096    -0.0043     0.2066
 2219.7001     8.5000   101.0690     9.0170    90.0898     3.6173     3.5345     3.5989     2.5174    -0.0024     0.1952
 2219.8001     8.5000    99.5006     9.0478    88.3864     3.2503     3.1779     3.2322     2.5245     0.0003     0.1893
 2219.9001     8.5000    96.6311     9.0642    86.6061     2.8022     2.7400     2.7834     2.5383    -0.0059     0.1953
 2220.0001     8.5000    94.5281     9.0973    85.3464     2.7221     2.6598     2.7018     2.5551    -0.0090     0.2013
 2220.1001     8.5000    93.7144     9.1227    84.6122     2.6737     2.6102     2.6516     2.5757    -0.0129     0.2006
 2220.2001     8.5000    93.0894     9.1400    84.3736     2.6141     2.5503     2.5906     2.5921    -0.0123     0.1955
 2220.3001     8.5000    96.3835     9.1683    84.9774     2.4425     2.3822     2.4183     2.5999    -0.0074     0.2035
 2220.4001     8.5000    98.2074     9.1716    86.8298     2.3450     2.2876     2.3211     2.5875    -0.0040     0.2165
 2220.5001     8.5000   101.9967     9.2161    88.1755     2.2432     2.1892     2.2201     2.5740    -0.0035     0.2196
 2220.6001     8.5000   106.0611     9.2702    88.8737     2.0700     2.0218     2.0484     2.5460    -0.0077     0.2095
 2220.7001     8.5000   105.4243     9.2756    89.4017     2.0346     1.9873     2.0130     2.5425    -0.0072     0.2147
 2220.8001     8.5000   104.1940     9.2622    90.0556     2.0343     1.9864     2.0121     2.5435    -0.0044     0.2227
 2220.9001     8.5000   104.1507     9.3176    91.1248     2.0386     1.9896     2.0154     2.5591     0.0055     0.2300
 2221.0001     8.5000   106.1083     9.3426    92.3772     2.0063     1.9584     1.9836     2.5622     0.0092     0.2266
 2221.1001     8.5000   106.9691     9.3675    93.2019     1.9570     1.9113     1.9354     2.5627     0.0122     0.2263
 2221.2001     8.5000   109.4691     9.3762    93.7010     1.9035     1.8603     1.8835     2.5480     0.0197     0.2338
 2221.3001     8.5000   111.4110     9.3888    93.0519     1.9364     1.8921     1.9162     2.5409     0.0212     0.2349
 2221.4001     8.5000   112.2954     9.3594    90.6321     2.0124     1.9651     1.9915     2.5398     0.0219     0.2343
 2221.5001     8.5000   107.6806     9.3362    88.0330     2.2413     2.1850     2.2184     2.5608     0.0171     0.2195
 2221.6001     8.5000   103.9070     9.3246    85.6261     2.3488     2.2886     2.3256     2.5728     0.0135     0.2090
 2221.7001     8.5000   101.9692     9.2924    84.4910     2.4153     2.3535     2.3932     2.5775     0.0098     0.2027
 2221.8001     8.5000   101.7333     9.2455    84.6152     2.4361     2.3752     2.4160     2.5702     0.0048     0.2006
 2221.9001     8.5000   102.8457     9.2290    84.6286     2.4489     2.3919     2.4339     2.5480     0.0011     0.1959
 2222.0001     8.5000   103.2820     9.2373    83.8484     2.5090     2.4518     2.4961     2.5380    -0.0000     0.1899
 2222.1001     8.5000   104.0210     9.2326    81.7606     2.6379     2.5778     2.6267     2.5381     0.0011     0.1825
 2222.2001     8.5000   104.0132     9.2254    79.2114     3.0943     3.0202     3.0868     2.5440    -0.0039     0.1802
 2222.3001     8.5000   102.6531     9.2283    76.7833     3.3721     3.2892     3.3674     2.5552    -0.0082     0.1684
 2222.4001     8.5000    99.7129     9.2160    75.3703     3.6406     3.5496     3.6391     2.5636    -0.0141     0.1550
 2222.5001     8.5000    93.6830     9.2289    75.0690     4.0594     3.9587     4.0646     2.5783    -0.0202     0.1486
 2222.6001     8.5000    92.6099     9.2180    74.8994     4.2000     4.0978     4.2078     2.5775    -0.0214     0.1498
 2222.7001     8.5000    92.7514     9.1349    75.3482     4.2941     4.1923     4.3029     2.5793    -0.0206     0.1515
 2222.8001     8.5000    92.9912     9.0914    76.2259     4.2744     4.1813     4.2821     2.5861    -0.0177     0.1503
 2222.9001     8.5000    92.0006     9.0534    77.7900     4.0989     4.0158     4.1040     2.5930    -0.0148     0.1574
 2223.0001     8.5000    90.8803     9.0203    79.5753     3.8108     3.7408     3.8130     2.5932    -0.0126     0.1650
