~VERSION INFORMATION
 VERS.                 2.0:   CWLS LOG ASCII STANDARD - VERSION 2.0
 WRAP.                  NO:   SINGLE LINE PER DEPTH STEP
 CREA.                 22/09/2026 10:10:00
#CREATED USING PANDAS VERSION 3.0.5 BY GIECAR/UFF ON 02/06/2020 16:50:42
~WELL INFORMATION
#MNEM.UNIT       DATA                          DESCRIPTION MNEMONIC
#---------      ---------------------------   --------------------------
 STRT    .M         1868.0001                 : START DEPTH
 STOP    .M         3172.9001                 : STOP DEPTH
 STEP    .M         0.1000                    : STEP VALUE
 NULL    .      -999.0000                     : NULL VALUE
 DATE    .      22/09/2026                    : LAS file Creation Date
 WELL   .      7-MP-56D-BA      : Well Name
 COMP   .      PETROBRAS        : Company
 FLD    .      MASSAPE          : Field
 STATE  .      BAHIA            : State
 API    .      20240028489      : API Number
 UWI    .                       : Unique Well Identifier (UWI)
 LOC    .                       : Location
 TOWN   .      -999.25          : Township
 SCT    .      -999.25          : Section
 RANG   .      -999.25          : Range
 PDAT   .      NM               : Permanent Datum
 EPDAT  .      0.0              : Elevation of Permanent Datum
 LGMEA  .      MR               : Log Measured from
 DRMEA  .      MR               : Drill Measured From
 APDAT  .      100.38           : Elevation Above Permanent Datum
 KB     .      100.68           : KB Elevation
 DF     .      100.38           : DF Elevation
 GL     .      90.98            : GL Elevation
 RWS    .      -999             : Def_Rw
 WST    .      -999             : Def_Rwt
 PROV   .                       : Province
 SRVC   .                       : Contractor
 GDAT   .      WGS 84           : Geodatum
 LONG   .      -38.4243922222985: Longitude
 LATI   .      0                : Latitude
 COORDIN.                       : Grid System
 XCOORD .                       : X or East-West Coordinate
 YCOORD .                       : Y or North-South Coordinate
~CURVE INFORMATION
#MNEM              UNIT       API CODE   Curve Type Comments
#----------  --------------- ----------  ---------- -----------
 DEPTH      .M                         : Depth       Loaded from DLIS: 7-mp-56d-ba_raw-1-6949.dlis
 BS         .in                        : BitSize     Loaded from DLIS: 7-mp-56d-ba_raw-1-6949.dlis
 GR         .gapi                      : GammaRay    Loaded from DLIS: 7-mp-56d-ba_raw-1-6949.dlis
 CALI       .in                        : Caliper     Loaded from DLIS: 7-mp-56d-ba_raw-1-6949.dlis   
 DT         .uspf                      : Sonic       Loaded from DLIS: 7-mp-56d-ba_raw-1-6949.dlis
 RT30       .ohmm                      : DeepRes     Loaded from DLIS: 7-mp-56d-ba_raw-1-6949.dlis
 RT60       .ohmm                      : DeepRes     Loaded from DLIS: 7-mp-56d-ba_raw-1-6949.dlis
 RT90       .ohmm                      : DeepRes     Loaded from DLIS: 7-mp-56d-ba_raw-1-6949.dlis
 RHOB       .g/cc                      : Density     Loaded from DLIS: 7-mp-56d-ba_raw-1-6949.dlis
 DRHO       .g/cc                      : Density     Loaded from DLIS: 7-mp-56d-ba_raw-1-6949.dlis
 NPHI       .decp                      : Neutron     Loaded from DLIS: 7-mp-56d-ba_raw-1-6949.dlis         
~A  DEPTH        BS        GR         CALI       DT         RT30       RT60       RT90       RHOB       DRHO       NPHI
# ...
 1955.1001     8.5000    98.8992     8.9693    87.6053     2.8172     2.8265     2.8539     2.5347     0.0245     0.2204
 1955.2001     8.5000   101.4031     8.9924    89.3810     2.3716     2.3757     2.3967     2.5272     0.0245     0.2445
 1955.3001     8.5000   102.8418     8.9890    91.1936     2.2572     2.2594     2.2796     2.5234     0.0238     0.2519
 1955.4001     8.5000   104.7954     9.0075    92.7026     2.1959     2.1963     2.2165     2.5215     0.0222     0.2563
 1955.5001     8.5000   110.7742     9.0219    93.3307     2.1739     2.1707     2.1932     2.5199     0.0195     0.2603
 1955.6001     8.5000   110.8921     9.0299    92.9281     2.1978     2.1927     2.2170     2.5244     0.0193     0.2651
 1955.7001     8.5000   108.4000     9.0389    91.8627     2.2445     2.2370     2.2640     2.5248     0.0186     0.2694
 1955.8001     8.5000   104.3905     9.0531    90.6938     2.3621     2.3490     2.3827     2.5327     0.0178     0.2502
 1955.9001     8.5000   104.2726     9.0557    89.6790     2.3870     2.3709     2.4076     2.5348     0.0178     0.2386
 1956.0001     8.5000   104.0879     9.0800    89.3791     2.3707     2.3521     2.3910     2.5407     0.0191     0.2454
 1956.1001     8.5000   101.6508     9.0714    89.5160     2.2755     2.2531     2.2945     2.5433     0.0219     0.2560
 1956.2001     8.5000    98.9621     9.0803    89.9008     2.2477     2.2234     2.2665     2.5406     0.0219     0.2559
 1956.3001     8.5000    96.3599     9.0661    89.7508     2.2501     2.2234     2.2692     2.5364     0.0231     0.2581
 1956.4001     8.5000    93.7655     9.0689    89.1034     2.3258     2.2928     2.3470     2.5282     0.0245     0.2491
 1956.5001     8.5000    95.0038     9.0671    87.9818     2.3815     2.3447     2.4044     2.5289     0.0260     0.2425
 1956.6001     8.5000    96.4031     9.0647    87.0388     2.4354     2.3950     2.4602     2.5286     0.0251     0.2345
 1956.7001     8.5000    96.7962     9.0581    86.5394     2.4782     2.4344     2.5047     2.5337     0.0240     0.2408
 1956.8001     8.5000    95.3497     9.0790    86.2759     2.5206     2.4721     2.5504     2.5438     0.0208     0.2476
 1956.9001     8.5000    95.5816     9.1206    86.2774     2.5297     2.4796     2.5610     2.5488     0.0205     0.2412
 1957.0001     8.5000    96.9338     9.1441    86.4489     2.5347     2.4834     2.5675     2.5480     0.0214     0.2465
 1957.1001     8.5000    96.1201     9.1126    86.7978     2.5184     2.4664     2.5537     2.5442     0.0267     0.2379
 1957.2001     8.5000    95.4204     9.1125    87.3513     2.4951     2.4437     2.5312     2.5418     0.0305     0.2325
 1957.3001     8.5000    95.3536     9.1003    87.5885     2.4679     2.4174     2.5047     2.5389     0.0330     0.2361
 1957.4001     8.5000   101.1004     9.1386    87.7489     2.4392     2.3899     2.4779     2.5278     0.0358     0.2345
 1957.5001     8.5000   103.6987     9.1374    87.5294     2.4528     2.4032     2.4933     2.5265     0.0362     0.2344
 1957.6001     8.5000   105.3143     9.1104    87.4354     2.4804     2.4299     2.5230     2.5307     0.0375     0.2367
 1957.7001     8.5000   101.4581     9.1219    87.3619     2.5096     2.4583     2.5552     2.5567     0.0399     0.2368
 1957.8001     8.5000    99.0328     9.1400    87.4878     2.4816     2.4315     2.5269     2.5650     0.0402     0.2373
 1957.9001     8.5000    97.7199     9.1374    88.0272     2.4241     2.3762     2.4677     2.5720     0.0403     0.2353
 1958.0001     8.5000   101.2144     9.1776    88.8137     2.2881     2.2449     2.3271     2.5702     0.0389     0.2385
 1958.1001     8.5000   103.0226     9.1129    89.7126     2.2398     2.1981     2.2770     2.5697     0.0402     0.2467
 1958.2001     8.5000   103.7930     9.1068    90.3746     2.2121     2.1710     2.2480     2.5673     0.0421     0.2535
 1958.3001     8.5000   102.2207     9.0873    90.4748     2.2012     2.1601     2.2363     2.5619     0.0445     0.2509
 1958.4001     8.5000    97.8261     9.1089    90.3754     2.1983     2.1561     2.2319     2.5485     0.0468     0.2531
 1958.5001     8.5000    97.5116     9.0941    90.1811     2.1915     2.1489     2.2241     2.5430     0.0465     0.2598
 1958.6001     8.5000    98.6869     9.0262    90.0502     2.1801     2.1373     2.2116     2.5460     0.0474     0.2543
 1958.7001     8.5000   100.5816     9.0639    90.1032     2.1586     2.1150     2.1875     2.5467     0.0506     0.2600
 1958.8001     8.5000   101.9181     9.0677    90.3816     2.1429     2.0991     2.1705     2.5413     0.0526     0.2616
 1958.9001     8.5000   103.9346     9.0328    91.2820     2.1137     2.0703     2.1397     2.5318     0.0554     0.2647
 1959.0001     8.5000   109.1507     9.0279    92.6972     2.0093     1.9687     2.0315     2.5252     0.0597     0.2903
 1959.1001     8.5000   109.3040     9.0445    94.1052     1.9458     1.9071     1.9661     2.5264     0.0616     0.2966
 1959.2001     8.5000   107.7199     9.0393    95.2068     1.8885     1.8516     1.9074     2.5263     0.0604     0.3025
 1959.3001     8.5000   103.0973     9.0859    96.1447     1.8295     1.7944     1.8473     2.5123     0.0556     0.2890
 1959.4001     8.5000   101.5171     9.2078    96.4019     1.8280     1.7931     1.8462     2.5028     0.0507     0.2798
 1959.5001     8.5000   100.6012     9.1373    95.8877     1.8396     1.8044     1.8587     2.4932     0.0458     0.2728
 1959.6001     8.5000   104.1311     9.0686    94.8814     1.8894     1.8534     1.9115     2.4908     0.0350     0.2845
 1959.7001     8.5000   105.6445     9.0466    93.7531     1.9283     1.8916     1.9527     2.4969     0.0321     0.2891
 1959.8001     8.5000   106.5328     9.0722    92.4281     1.9795     1.9418     2.0068     2.5060     0.0295     0.2761
 1959.9001     8.5000   105.0195     9.0784    90.9860     2.0453     2.0063     2.0763     2.5140     0.0291     0.2760
 1960.0001     8.5000   100.4754     9.0587    89.6371     2.2165     2.1739     2.2574     2.5231     0.0285     0.2751
 1960.1001     8.5000    99.8151     9.0633    88.4562     2.3066     2.2622     2.3529     2.5312     0.0295     0.2655
 1960.2001     8.5000   101.0140     9.0675    87.6564     2.3865     2.3409     2.4375     2.5367     0.0288     0.2519
 1960.3001     8.5000   103.0580     9.0779    87.0568     2.4959     2.4498     2.5542     2.5464     0.0253     0.2468
 1960.4001     8.5000   102.4369     9.0829    86.5928     2.5231     2.4778     2.5841     2.5423     0.0211     0.2559
 1960.5001     8.5000   102.1107     9.0990    86.8503     2.5357     2.4917     2.5989     2.5421     0.0168     0.2569
 1960.6001     8.5000    97.9754     9.1012    87.5873     2.5220     2.4817     2.5882     2.5413     0.0090     0.2551
 1960.7001     8.5000    96.1083     9.0971    88.9150     2.4907     2.4530     2.5574     2.5400     0.0061     0.2560
 1960.8001     8.5000    95.2553     9.1052    89.8981     2.4495     2.4144     2.5164     2.5341     0.0041     0.2501
 1960.9001     8.5000    97.8772     9.0700    90.8533     2.3699     2.3397     2.4367     2.5151     0.0023     0.2530
 1961.0001     8.5000    98.8795     9.0774    91.6139     2.3300     2.3020     2.3963     2.5123     0.0023     0.2534
 1961.1001     8.5000    98.2938     9.0798    91.8631     2.2893     2.2634     2.3550     2.5110     0.0021     0.2557
 1961.2001     8.5000    95.3890     9.0974    91.4961     2.2252     2.2026     2.2894     2.5260     0.0019     0.2501
 1961.3001     8.5000    93.9424     9.1068    91.0186     2.2048     2.1833     2.2683     2.5320     0.0026     0.2538
 1961.4001     8.5000    93.6319     9.0934    91.0902     2.1884     2.1679     2.2511     2.5401     0.0041     0.2559
 1961.5001     8.5000    94.5517     9.0997    91.7382     2.1702     2.1503     2.2316     2.5409     0.0050     0.2562
 1961.6001     8.5000    97.5627     9.0904    92.5788     2.1131     2.0943     2.1708     2.5382     0.0072     0.2562
 1961.7001     8.5000    98.1523     9.0710    93.4655     2.0783     2.0598     2.1337     2.5318     0.0072     0.2671
