~VERSION INFORMATION
 VERS.                 2.0:   CWLS LOG ASCII STANDARD - VERSION 2.0
 WRAP.                  NO:   SINGLE LINE PER DEPTH STEP
 CREA.                 22/09/2026 10:10:00
#CREATED USING PANDAS VERSION 3.0.5 BY GIECAR/UFF ON 02/06/2020 16:50:42
~WELL INFORMATION
#MNEM.UNIT       DATA                          DESCRIPTION MNEMONIC
#---------      ---------------------------   --------------------------
 STRT    .M         1868.0001                 : START DEPTH
 STOP    .M         3172.9001                 : STOP DEPTH
 STEP    .M         0.1000                    : STEP VALUE
 NULL    .      -999.0000                     : NULL VALUE
 DATE    .      22/09/2026                    : LAS file Creation Date
 WELL   .      7-MP-56D-BA      : Well Name
 COMP   .      PETROBRAS        : Company
 FLD    .      MASSAPE          : Field
 STATE  .      BAHIA            : State
 API    .      20240028489      : API Number
 UWI    .                       : Unique Well Identifier (UWI)
 LOC    .                       : Location
 TOWN   .      -999.25          : Township
 SCT    .      -999.25          : Section
 RANG   .      -999.25          : Range
 PDAT   .      NM               : Permanent Datum
 EPDAT  .      0.0              : Elevation of Permanent Datum
 LGMEA  .      MR               : Log Measured from
 DRMEA  .      MR               : Drill Measured From
 APDAT  .      100.38           : Elevation Above Permanent Datum
 KB     .      100.68           : KB Elevation
 DF     .      100.38           : DF Elevation
 GL     .      90.98            : GL Elevation
 RWS    .      -999             : Def_Rw
 WST    .      -999             : Def_Rwt
 PROV   .                       : Province
 SRVC   .                       : Contractor
 GDAT   .      WGS 84           : Geodatum
 LONG   .      -38.4243922222985: Longitude
 LATI   .      0                : Latitude
 COORDIN.                       : Grid System
 XCOORD .                       : X or East-West Coordinate
 YCOORD .                       : Y or North-South Coordinate
~CURVE INFORMATION
#MNEM              UNIT       API CODE   Curve Type Comments
#----------  --------------- ----------  ---------- -----------
 DEPTH      .M                         : Depth       Loaded from DLIS: 7-mp-56d-ba_raw-1-6949.dlis
 BS         .in                        : BitSize     Loaded from DLIS: 7-mp-56d-ba_raw-1-6949.dlis
 GR         .gapi                      : GammaRay    Loaded from DLIS: 7-mp-56d-ba_raw-1-6949.dlis
 CALI       .in                        : Caliper     Loaded from DLIS: 7-mp-56d-ba_raw-1-6949.dlis   
 DT         .uspf                      : Sonic       Loaded from DLIS: 7-mp-56d-ba_raw-1-6949.dlis
 RT30       .ohmm                      : DeepRes     Loaded from DLIS: 7-mp-56d-ba_raw-1-6949.dlis
 RT60       .ohmm                      : DeepRes     Loaded from DLIS: 7-mp-56d-ba_raw-1-6949.dlis
 RT90       .ohmm                      : DeepRes     Loaded from DLIS: 7-mp-56d-ba_raw-1-6949.dlis
 RHOB       .g/cc                      : Density     Loaded from DLIS: 7-mp-56d-ba_raw-1-6949.dlis
 DRHO       .g/cc                      : Density     Loaded from DLIS: 7-mp-56d-ba_raw-1-6949.dlis
 NPHI       .decp                      : Neutron     Loaded from DLIS: 7-mp-56d-ba_raw-1-6949.dlis         
~A  DEPTH        BS        GR         CALI       DT         RT30       RT60       RT90       RHOB       DRHO       NPHI
# ...
 2477.7001     8.5000    95.3929     8.7276    83.7124     2.7313     2.6767     2.6744     2.6100    -0.0030     0.2261
 2477.8001     8.5000    95.6759     8.7298    83.4946     2.7494     2.6939     2.6916     2.6114    -0.0028     0.2315
 2477.9001     8.5000    97.8772     8.7271    83.6007     2.7525     2.6965     2.6944     2.6089    -0.0026     0.2397
 2478.0001     8.5000   100.1374     8.7280    83.7878     2.7102     2.6550     2.6531     2.5972    -0.0049     0.2323
 2478.1001     8.5000    99.0800     8.7036    84.0177     2.6797     2.6252     2.6235     2.5890    -0.0060     0.2261
 2478.2001     8.5000    97.0635     8.6867    84.2754     2.6609     2.6068     2.6051     2.5843    -0.0065     0.2324
 2478.3001     8.5000    96.9023     8.6860    84.4148     2.6746     2.6193     2.6175     2.5880    -0.0049     0.2421
 2478.4001     8.5000    98.2467     8.6959    84.2525     2.6952     2.6387     2.6368     2.5929    -0.0052     0.2386
 2478.5001     8.5000    99.8387     8.6983    84.0273     2.7173     2.6598     2.6577     2.5969    -0.0056     0.2460
 2478.6001     8.5000   100.7860     8.7042    83.9344     2.7603     2.7009     2.6983     2.5934    -0.0085     0.2325
 2478.7001     8.5000   101.9613     8.7021    83.8638     2.7815     2.7213     2.7183     2.5942    -0.0089     0.2284
 2478.8001     8.5000   104.5831     8.7005    83.8383     2.8042     2.7432     2.7398     2.5937    -0.0110     0.2310
 2478.9001     8.5000   106.3992     8.6960    83.7629     2.8314     2.7694     2.7657     2.5952    -0.0123     0.2398
 2479.0001     8.5000   103.6476     8.6848    83.6822     2.8939     2.8297     2.8251     2.5918    -0.0136     0.2306
 2479.1001     8.5000    98.7616     8.6671    83.4832     2.9123     2.8474     2.8424     2.5876    -0.0124     0.2276
 2479.2001     8.5000    94.9841     8.6548    83.2117     2.9141     2.8493     2.8439     2.5826    -0.0123     0.2230
 2479.3001     8.5000    93.9975     8.6973    82.8925     2.8892     2.8256     2.8198     2.5736    -0.0131     0.2218
 2479.4001     8.5000    96.0061     8.7208    82.7171     2.8775     2.8143     2.8084     2.5731    -0.0144     0.2201
 2479.5001     8.5000    98.3843     8.7323    82.5501     2.8730     2.8099     2.8039     2.5753    -0.0145     0.2173
 2479.6001     8.5000   101.1319     8.7314    82.2686     2.9049     2.8400     2.8338     2.5827    -0.0161     0.2289
 2479.7001     8.5000   101.1122     8.7299    81.9033     2.9499     2.8827     2.8765     2.5836    -0.0168     0.2334
 2479.8001     8.5000    99.4377     8.7342    81.3927     3.0097     2.9394     2.9331     2.5832    -0.0182     0.2336
 2479.9001     8.5000    96.4542     8.7307    81.1397     3.1247     3.0483     3.0422     2.5802    -0.0195     0.2250
 2480.0001     8.5000    96.3049     8.7341    81.1790     3.1553     3.0770     3.0713     2.5820    -0.0201     0.2247
 2480.1001     8.5000    96.7569     8.7291    81.4392     3.1569     3.0781     3.0728     2.5853    -0.0204     0.2224
 2480.2001     8.5000    98.8166     8.7335    81.8484     3.0851     3.0092     3.0052     2.5917    -0.0197     0.2196
 2480.3001     8.5000    99.1193     8.7292    82.2068     3.0360     2.9622     2.9589     2.5901    -0.0186     0.2232
 2480.4001     8.5000    98.4943     8.7339    82.4308     2.9963     2.9243     2.9217     2.5861    -0.0166     0.2282
 2480.5001     8.5000    97.5195     8.7321    82.4148     2.9733     2.9024     2.9004     2.5793    -0.0146     0.2255
 2480.6001     8.5000    94.0997     8.7054    82.3191     2.9668     2.8965     2.8955     2.5713    -0.0110     0.2189
 2480.7001     8.5000    94.0446     8.7018    82.2301     2.9649     2.8950     2.8944     2.5722    -0.0104     0.2221
 2480.8001     8.5000    94.5006     8.7001    82.1904     2.9587     2.8895     2.8893     2.5807    -0.0091     0.2202
 2480.9001     8.5000    95.8332     8.6866    82.1210     2.9676     2.8988     2.8990     2.5975    -0.0071     0.2137
 2481.0001     8.5000    96.6861     8.6841    82.0514     2.9934     2.9240     2.9242     2.6006    -0.0062     0.2165
 2481.1001     8.5000    97.6964     8.6875    81.9476     3.0261     2.9556     2.9557     2.5958    -0.0067     0.2181
 2481.2001     8.5000   101.2223     8.6885    81.9684     3.0542     2.9830     2.9826     2.5928    -0.0074     0.2280
 2481.3001     8.5000   100.2475     8.7002    82.3149     3.0188     2.9494     2.9484     2.5960    -0.0068     0.2216
 2481.4001     8.5000    98.3489     8.7007    83.2169     2.9377     2.8719     2.8704     2.6049    -0.0056     0.2239
 2481.5001     8.5000    96.3442     8.7038    84.1903     2.6914     2.6358     2.6333     2.6068    -0.0028     0.2214
 2481.6001     8.5000    98.3607     8.7031    85.2746     2.5841     2.5325     2.5294     2.6039    -0.0020     0.2155
 2481.7001     8.5000   100.7231     8.7070    86.1405     2.5172     2.4680     2.4644     2.5955    -0.0015     0.2202
 2481.8001     8.5000   103.9975     8.7145    86.7979     2.5124     2.4631     2.4579     2.5942     0.0005     0.2332
 2481.9001     8.5000   106.5132     8.7227    86.9039     2.5555     2.5044     2.4981     2.5961     0.0014     0.2396
 2482.0001     8.5000   108.8913     8.7080    86.4162     2.6124     2.5589     2.5514     2.6024     0.0026     0.2392
 2482.1001     8.5000   109.8937     8.7064    85.6287     2.6750     2.6188     2.6100     2.6069     0.0024     0.2395
 2482.2001     8.5000   102.9007     8.7002    84.9365     2.7923     2.7308     2.7192     2.6210     0.0036     0.2321
 2482.3001     8.5000    98.6398     8.7086    84.3339     2.8290     2.7657     2.7527     2.6251     0.0038     0.2271
 2482.4001     8.5000    95.3929     8.7096    83.7654     2.8430     2.7788     2.7647     2.6252     0.0040     0.2196
 2482.5001     8.5000    95.2357     8.7090    83.2076     2.8378     2.7731     2.7573     2.6188     0.0027     0.2177
 2482.6001     8.5000    97.4920     8.7037    82.8043     2.8449     2.7794     2.7627     2.6146     0.0017     0.2179
 2482.7001     8.5000    99.5438     8.7009    82.3657     2.8674     2.8004     2.7828     2.6135     0.0007     0.2168
 2482.8001     8.5000   100.9629     8.6950    82.0438     2.9303     2.8592     2.8396     2.6081    -0.0029     0.2136
 2482.9001     8.5000    99.0407     8.6935    81.8754     2.9482     2.8756     2.8554     2.6078    -0.0051     0.2086
 2483.0001     8.5000    97.0989     8.6992    81.9009     2.9544     2.8809     2.8604     2.6034    -0.0077     0.2048
 2483.1001     8.5000    97.4291     8.6948    81.9827     2.9837     2.9077     2.8868     2.6044    -0.0103     0.1996
 2483.2001     8.5000    98.3489     8.6950    81.9230     3.0266     2.9480     2.9267     2.6042    -0.0109     0.2049
 2483.3001     8.5000    98.0226     8.6841    81.7123     3.0839     3.0021     2.9803     2.6093    -0.0106     0.2071
 2483.4001     8.5000    95.1335     8.6863    81.3796     3.1921     3.1043     3.0825     2.6138    -0.0100     0.2081
 2483.5001     8.5000    94.6696     8.6869    81.0929     3.2328     3.1429     3.1216     2.6155    -0.0095     0.2032
 2483.6001     8.5000    95.3339     8.6773    80.8633     3.2671     3.1755     3.1550     2.6144    -0.0087     0.2034
 2483.7001     8.5000    95.9668     8.6825    80.6814     3.2958     3.2032     3.1837     2.6136    -0.0076     0.2050
 2483.8001     8.5000    93.9817     8.6742    80.6179     3.3335     3.2404     3.2239     2.6139    -0.0079     0.2095
 2483.9001     8.5000    92.4841     8.6767    80.6925     3.3330     3.2410     3.2265     2.6154    -0.0093     0.2129
 2484.0001     8.5000    91.7137     8.6667    80.8029     3.3147     3.2249     3.2126     2.6169    -0.0109     0.2111
 2484.1001     8.5000    91.3599     8.6656    80.9557     3.2635     3.1790     3.1715     2.6143    -0.0128     0.2061
 2484.2001     8.5000    91.7766     8.6661    81.1459     3.2526     3.1701     3.1650     2.6107    -0.0138     0.1979
 2484.3001     8.5000    91.9259     8.6710    81.3813     3.2530     3.1720     3.1692     2.6078    -0.0149     0.2013
